[
{"type":"Feature","properties":{"name":"[AT-1220] Gert Motors 1220 Wien [Wien - Hirschstetten]"},"geometry":{"type":"Point","coordinates":[16.45961,48.23896]}},
{"type":"Feature","properties":{"name":"[AT-4015] Hotel Testhausen [Linz]"},"geometry":{"type":"Point","coordinates":[14.29783,48.30344]}},
{"type":"Feature","properties":{"name":"[AT-6351] Bikerranch Scheffau Wiesenhof 204 [Scheffau am Wilden Kaiser - Blaiken]"},"geometry":{"type":"Point","coordinates":[12.24853,47.5251]}},
{"type":"Feature","properties":{"name":"[AT-6542] Pfunds Hoamatl"},"geometry":{"type":"Point","coordinates":[10.52939,46.96621]}},
{"type":"Feature","properties":{"name":"[AT-6883] Forellenessen in Au"},"geometry":{"type":"Point","coordinates":[9.96893,47.33019]}},
{"type":"Feature","properties":{"name":"[AT-A-9711] Beim Schretzenmaier"},"geometry":{"type":"Point","coordinates":[13.6372,46.71263]}},
{"type":"Feature","properties":{"name":"[CH-4632] Töfftreff immer Donnerstag Abend  TRIMBACH [Trimbach]"},"geometry":{"type":"Point","coordinates":[7.8827,47.3674]}},
{"type":"Feature","properties":{"name":"[CH-8182] Rest Kaserne. 1er Freitag im Monat ab 19uhr [Hochfelden]"},"geometry":{"type":"Point","coordinates":[8.52363,47.51192]}},
{"type":"Feature","properties":{"name":"[CH-9606] Büll Mloto"},"geometry":{"type":"Point","coordinates":[9.07634,47.35507]}},
{"type":"Feature","properties":{"name":"[CH-CH-9107] Bikertreff Schwägalp"},"geometry":{"type":"Point","coordinates":[9.32002,47.25592]}},
{"type":"Feature","properties":{"name":"[DE-01277] bleifrei freitags treff [Dresden - Seidnitz-Nord]"},"geometry":{"type":"Point","coordinates":[13.81604,51.03535]}},
{"type":"Feature","properties":{"name":"[DE-01796] 04651"},"geometry":{"type":"Point","coordinates":[14.05073,50.92187]}},
{"type":"Feature","properties":{"name":"[DE-03042] Ellis Biker Scheune [Cottbus]"},"geometry":{"type":"Point","coordinates":[14.36837,51.76826]}},
{"type":"Feature","properties":{"name":"[DE-06567] Kyffhäuser [Steinthaleben - Kyffhäuser]"},"geometry":{"type":"Point","coordinates":[11.105,51.41278]}},
{"type":"Feature","properties":{"name":"[DE-07922] crossstrecke, bei tanna,schleiz"},"geometry":{"type":"Point","coordinates":[11.89607,50.49828]}},
{"type":"Feature","properties":{"name":"[DE-07929] Mai   September christl.Bikertreffen [Saalburg-Ebersdorf - Friesau]"},"geometry":{"type":"Point","coordinates":[11.64208,50.49612]}},
{"type":"Feature","properties":{"name":"[DE-08328] Talsperrenblick Eibenstock am WE, www.talsperrenblick.com"},"geometry":{"type":"Point","coordinates":[12.59789,50.5334]}},
{"type":"Feature","properties":{"name":"[DE-09232] MF-Salzstraße Freitags ab 20 Uhr [Hartmannsdorf]"},"geometry":{"type":"Point","coordinates":[12.79956,50.89158]}},
{"type":"Feature","properties":{"name":"[DE-10997] Zweiradmuseum [Berlin - Kreuzberg]"},"geometry":{"type":"Point","coordinates":[13.43916,52.50256]}},
{"type":"Feature","properties":{"name":"[DE-13507] Garage"},"geometry":{"type":"Point","coordinates":[13.31329,52.5855]}},
{"type":"Feature","properties":{"name":"[DE-14109] Der Berliner Treff Spinner Brücke [Berlin - Nikolassee]"},"geometry":{"type":"Point","coordinates":[13.19092,52.43358]}},
{"type":"Feature","properties":{"name":"[DE-14715] Gaststätte zur Scheune [Milow]"},"geometry":{"type":"Point","coordinates":[12.31011,52.51718]}},
{"type":"Feature","properties":{"name":"[DE-14947] Cafe Die Scheune"},"geometry":{"type":"Point","coordinates":[13.06327,52.1618]}},
{"type":"Feature","properties":{"name":"[DE-15864] Märkisches Buffet B246 Am Wochenende [Wendisch Rietz - Scharmützelsee]"},"geometry":{"type":"Point","coordinates":[14.01161,52.20483]}},
{"type":"Feature","properties":{"name":"[DE-16248] Am Schiffshebewerk Niederfinow"},"geometry":{"type":"Point","coordinates":[13.94055,52.848]}},
{"type":"Feature","properties":{"name":"[DE-16727] Coldehörn  Sonntags Brunch [Oberkrämer - Bötzow]"},"geometry":{"type":"Point","coordinates":[13.14608,52.66242]}},
{"type":"Feature","properties":{"name":"[DE-17129] Das Gutshaus"},"geometry":{"type":"Point","coordinates":[13.2598,53.84773]}},
{"type":"Feature","properties":{"name":"[DE-19273] Bei Tania"},"geometry":{"type":"Point","coordinates":[11.04261,53.1987]}},
{"type":"Feature","properties":{"name":"[DE-20144] Sternschanze am S Bahnhof Kulttreffen HH 3. So im Monat 10 12 [Hamburg - Eimsbüttel]"},"geometry":{"type":"Point","coordinates":[9.96558,53.56394]}},
{"type":"Feature","properties":{"name":"[DE-21037] Hoopte [Hamburg - Lütjenburg]"},"geometry":{"type":"Point","coordinates":[10.17237,53.39507]}},
{"type":"Feature","properties":{"name":"[DE-21073] Rout 73 Stader Str.100 B73 Sa Live Musik [Hamburg - Heimfeld]"},"geometry":{"type":"Point","coordinates":[9.95097,53.47074]}},
{"type":"Feature","properties":{"name":"[DE-21217] Herberts Imbiss Oartkatenufer 4 [Seevetal - Over]"},"geometry":{"type":"Point","coordinates":[10.08886,53.45028]}},
{"type":"Feature","properties":{"name":"[DE-21379] Schiffshebewerk Scharnebeck"},"geometry":{"type":"Point","coordinates":[10.49363,53.2926]}},
{"type":"Feature","properties":{"name":"[DE-21423] Zollenspieker Fährhaus [Winsen - Hoopte]"},"geometry":{"type":"Point","coordinates":[10.18344,53.39819]}},
{"type":"Feature","properties":{"name":"[DE-21635] Lüheanleger/bei Hamburg [Jork - Lühe]"},"geometry":{"type":"Point","coordinates":[9.63227,53.5723]}},
{"type":"Feature","properties":{"name":"[DE-22851] Trucker [Norderstedt - Glashütte]"},"geometry":{"type":"Point","coordinates":[10.04372,53.69301]}},
{"type":"Feature","properties":{"name":"[DE-22880] Motorradtreff bei Isi´s Fischbude [Wedel]"},"geometry":{"type":"Point","coordinates":[9.70127,53.56925]}},
{"type":"Feature","properties":{"name":"[DE-23556] Riders Cafe  Leinweberstraße 4"},"geometry":{"type":"Point","coordinates":[10.63226,53.86164]}},
{"type":"Feature","properties":{"name":"[DE-23562] Landhotel Klempaus Lübecker Str.5 7 [Lübeck - Krummesse]"},"geometry":{"type":"Point","coordinates":[10.641,53.7819]}},
{"type":"Feature","properties":{"name":"[DE-23715] Back to the Roots, Bicker Cafe, 23701 Braak bei Eutin  Wilhelm-Wisser-Str.8"},"geometry":{"type":"Point","coordinates":[10.5854,54.1043]}},
{"type":"Feature","properties":{"name":"[DE-23826] Mittwochs gegen 18:00 [Bark - Bockhorn]"},"geometry":{"type":"Point","coordinates":[10.12874,53.91813]}},
{"type":"Feature","properties":{"name":"[DE-23883] Dat Bike Huus"},"geometry":{"type":"Point","coordinates":[10.81939,53.5902]}},
{"type":"Feature","properties":{"name":"[DE-23909] Eisdiele Pelz Schloßwiese 1 [Ratzeburg - Inselstadt]"},"geometry":{"type":"Point","coordinates":[10.76375,53.69951]}},
{"type":"Feature","properties":{"name":"[DE-24211] 24211 Rastorf, Lange Reihe an der B202, Rasthuus ant Kruez"},"geometry":{"type":"Point","coordinates":[10.30175,54.27602]}},
{"type":"Feature","properties":{"name":"[DE-24306] 24306 Plön Ascheberger Str. 2  am Imbiss"},"geometry":{"type":"Point","coordinates":[10.4048,54.1533]}},
{"type":"Feature","properties":{"name":"[DE-25376] Hof Beermann"},"geometry":{"type":"Point","coordinates":[9.4472,53.82101]}},
{"type":"Feature","properties":{"name":"[DE-25377] 25377 Kollmar"},"geometry":{"type":"Point","coordinates":[9.48932,53.72569]}},
{"type":"Feature","properties":{"name":"[DE-25436] Gasthaus Fachwerk Hafenstr.1 Biergarten [Tornesch - Esingen]"},"geometry":{"type":"Point","coordinates":[9.72837,53.68532]}},
{"type":"Feature","properties":{"name":"[DE-25489] Hafen Haseldorf (29.08.06 12:55:06 [Haselau - Mühlenwurth]"},"geometry":{"type":"Point","coordinates":[9.57237,53.63499]}},
{"type":"Feature","properties":{"name":"[DE-25541] Brunsbüttel,Schleuse"},"geometry":{"type":"Point","coordinates":[9.1557,53.89435]}},
{"type":"Feature","properties":{"name":"[DE-25541] Lütt Stüv Cuxhavener Str.10 Ausflugslokal am Schleusenende [Brunsbüttel - Brunsbüttelkoog]"},"geometry":{"type":"Point","coordinates":[9.15362,53.89465]}},
{"type":"Feature","properties":{"name":"[DE-25746] Treff am Markt"},"geometry":{"type":"Point","coordinates":[9.09124,54.19442]}},
{"type":"Feature","properties":{"name":"[DE-25813] Grosse Tour immer Ostersonntag 12 00 [Schwesing - Augsburg]"},"geometry":{"type":"Point","coordinates":[9.0899,54.49558]}},
{"type":"Feature","properties":{"name":"[DE-25832] Eidersperrwerk"},"geometry":{"type":"Point","coordinates":[8.84703,54.26573]}},
{"type":"Feature","properties":{"name":"[DE-26316] Kurhaus Dangast Varel Dangast [Varel - Dangast]"},"geometry":{"type":"Point","coordinates":[8.11789,53.44471]}},
{"type":"Feature","properties":{"name":"[DE-26553] Zum Kronprinzen Kirchstr.11 Bike Motel [Dornum]"},"geometry":{"type":"Point","coordinates":[7.42848,53.64754]}},
{"type":"Feature","properties":{"name":"[DE-26670] Waldhaus Hollsand"},"geometry":{"type":"Point","coordinates":[7.7085,53.33722]}},
{"type":"Feature","properties":{"name":"[DE-26683] Bikers Inn"},"geometry":{"type":"Point","coordinates":[7.66984,53.10828]}},
{"type":"Feature","properties":{"name":"[DE-26689] Biker Hotel Zur Schanze"},"geometry":{"type":"Point","coordinates":[7.71485,53.21204]}},
{"type":"Feature","properties":{"name":"[DE-27336] Tonenburg [Rethemer Fähre]"},"geometry":{"type":"Point","coordinates":[9.40295,52.82218]}},
{"type":"Feature","properties":{"name":"[DE-27632] Bikertreff Kutterhafen Dorum"},"geometry":{"type":"Point","coordinates":[8.51746,53.73848]}},
{"type":"Feature","properties":{"name":"[DE-27632] Dorum"},"geometry":{"type":"Point","coordinates":[8.51746,53.73849]}},
{"type":"Feature","properties":{"name":"[DE-28309] Aladin Hannoversche Str.11 Fr [Bremen - Hemelingen]"},"geometry":{"type":"Point","coordinates":[8.8914,53.04954]}},
{"type":"Feature","properties":{"name":"[DE-29640] ZTK Könemann Cafe und Motorradshop [Schneverdingen - Höpen]"},"geometry":{"type":"Point","coordinates":[9.80341,53.12385]}},
{"type":"Feature","properties":{"name":"[DE-29646] Eiscafe Venezia [Bispingen]"},"geometry":{"type":"Point","coordinates":[9.99734,53.08223]}},
{"type":"Feature","properties":{"name":"[DE-30159] HANNOVER: Georgswall Zeiten: Freitag"},"geometry":{"type":"Point","coordinates":[9.74222,52.37]}},
{"type":"Feature","properties":{"name":"[DE-30900] Berkhofer Strasse [WEDEMARK]"},"geometry":{"type":"Point","coordinates":[9.72463,52.60078]}},
{"type":"Feature","properties":{"name":"[DE-31141] Platz Kempfer"},"geometry":{"type":"Point","coordinates":[9.97783,52.11037]}},
{"type":"Feature","properties":{"name":"[DE-31162] Söder Heidekrug"},"geometry":{"type":"Point","coordinates":[10.07404,52.0539]}},
{"type":"Feature","properties":{"name":"[DE-31171] Nordstemmen"},"geometry":{"type":"Point","coordinates":[9.78147,52.16081]}},
{"type":"Feature","properties":{"name":"[DE-31246] Bar [Lahstedt - Groß Lafferde]"},"geometry":{"type":"Point","coordinates":[10.24631,52.22718]}},
{"type":"Feature","properties":{"name":"[DE-31683] Berggasthaus Walter Bückeberg [Obernkirchen - Bückeberg]"},"geometry":{"type":"Point","coordinates":[9.19479,52.25745]}},
{"type":"Feature","properties":{"name":"[DE-31683] Süße Mutter"},"geometry":{"type":"Point","coordinates":[9.13472,52.24203]}},
{"type":"Feature","properties":{"name":"[DE-31840] Fähre bei Großenwieden [Hessisch Oldendorf - Großenwieden]"},"geometry":{"type":"Point","coordinates":[9.18905,52.17249]}},
{"type":"Feature","properties":{"name":"[DE-31848] Niensteterpass [Bad Münder - Nienstedt]"},"geometry":{"type":"Point","coordinates":[9.47204,52.26406]}},
{"type":"Feature","properties":{"name":"[DE-31860] Fähre bei Gronde Weserstr. [Emmerthal]"},"geometry":{"type":"Point","coordinates":[9.4253,52.0196]}},
{"type":"Feature","properties":{"name":"[DE-31860] Fähre bei Hajen Am Ruhberg [Emmerthal - Hajen]"},"geometry":{"type":"Point","coordinates":[9.4312,51.99925]}},
{"type":"Feature","properties":{"name":"[DE-31867] Niensteterpass in der Kurve [Messenkamp - Altenhagen]"},"geometry":{"type":"Point","coordinates":[9.41164,52.25838]}},
{"type":"Feature","properties":{"name":"[DE-31868] Landherberge Ottenstein  Breite Str.38  Wochenende [Ottenstein]"},"geometry":{"type":"Point","coordinates":[9.31954,51.85959]}},
{"type":"Feature","properties":{"name":"[DE-32107] Adrenalin Biker Pub Ahmser Str.97a Freitags Programm [Bad Salzuflen - Büxten]"},"geometry":{"type":"Point","coordinates":[8.67545,52.08246]}},
{"type":"Feature","properties":{"name":"[DE-32423] Amerik.Restaurant Diner Road"},"geometry":{"type":"Point","coordinates":[8.97947,52.30848]}},
{"type":"Feature","properties":{"name":"[DE-32457] Am Kaiser Wilhelm Denkmal"},"geometry":{"type":"Point","coordinates":[8.90527,52.24533]}},
{"type":"Feature","properties":{"name":"[DE-32457] Fähre bei Veltheimer [Porta Westfalica - Veltheim]"},"geometry":{"type":"Point","coordinates":[8.97741,52.18394]}},
{"type":"Feature","properties":{"name":"[DE-32469] Zur Speiche"},"geometry":{"type":"Point","coordinates":[8.98944,52.4475]}},
{"type":"Feature","properties":{"name":"[DE-32676] Emmerstausee Pyrmonter Str. [Lügde - Harzberg]"},"geometry":{"type":"Point","coordinates":[9.19083,51.93153]}},
{"type":"Feature","properties":{"name":"[DE-32676] Köterberg [Lügde - Köterberg]"},"geometry":{"type":"Point","coordinates":[9.32431,51.85543]}},
{"type":"Feature","properties":{"name":"[DE-32676] Motorradtreffs"},"geometry":{"type":"Point","coordinates":[9.31988,51.86017]}},
{"type":"Feature","properties":{"name":"[DE-32689] Todeskurfe B514 [Kalletal - Kalldorf]"},"geometry":{"type":"Point","coordinates":[8.91535,52.16656]}},
{"type":"Feature","properties":{"name":"[DE-32699] Burg Sternberg  L963 Sternberger Straße [Extertal - Linderhofe]"},"geometry":{"type":"Point","coordinates":[9.05271,52.04906]}},
{"type":"Feature","properties":{"name":"[DE-32699] Guenters Kurve [Extertal - Kükenbruch]"},"geometry":{"type":"Point","coordinates":[9.06778,52.12722]}},
{"type":"Feature","properties":{"name":"[DE-32760] Adlerwarte Berlebeck Adlerweg 13 15 [Detmold - Berlebeck]"},"geometry":{"type":"Point","coordinates":[8.87127,51.89427]}},
{"type":"Feature","properties":{"name":"[DE-32760] Hermannsdenkmal Denkmalstr. [Detmold - Schling]"},"geometry":{"type":"Point","coordinates":[8.83961,51.90975]}},
{"type":"Feature","properties":{"name":"[DE-32805] Externsteine [Horn-Bad Meinberg - Horn]"},"geometry":{"type":"Point","coordinates":[8.92383,51.8682]}},
{"type":"Feature","properties":{"name":"[DE-33034] Pizzeria Paparazzi Am Markt7 Ab 17Uhr [Brakel - Gehrden]"},"geometry":{"type":"Point","coordinates":[9.11873,51.65529]}},
{"type":"Feature","properties":{"name":"[DE-33039] Gut Albrock [Nieheim - Erwitzen]"},"geometry":{"type":"Point","coordinates":[9.1513,51.75712]}},
{"type":"Feature","properties":{"name":"[DE-33428] Brocker Mühle (mittwoch abends)"},"geometry":{"type":"Point","coordinates":[8.27951,51.9259]}},
{"type":"Feature","properties":{"name":"[DE-33602] Black Rose Heeper Str.52 Biker Kneipe [Bielefeld - Stadtbezirk Mitte]"},"geometry":{"type":"Point","coordinates":[8.55489,52.02216]}},
{"type":"Feature","properties":{"name":"[DE-33611] Schillerstraße 18 [Bielefeld]"},"geometry":{"type":"Point","coordinates":[8.54661,52.04386]}},
{"type":"Feature","properties":{"name":"[DE-34125] Hotel Roter Kater / Graue Katze Fuldatalstr.364 So ab 12Uhr [Kassel - Wolfsanger/Hasenhecke]"},"geometry":{"type":"Point","coordinates":[9.54247,51.32831]}},
{"type":"Feature","properties":{"name":"[DE-34270] Zum goldenen Stern Hauptstr.21 [Schauenburg - Breitenbach]"},"geometry":{"type":"Point","coordinates":[9.31129,51.28137]}},
{"type":"Feature","properties":{"name":"[DE-34346] Fähre bei Hemeln Reinhardshagen [Hann. Münden - Hemeln]"},"geometry":{"type":"Point","coordinates":[9.60625,51.49855]}},
{"type":"Feature","properties":{"name":"[DE-34346] Zur Fähre Fährstr.5 Ausflugslokal [Hann. Münden - Hemeln]"},"geometry":{"type":"Point","coordinates":[9.60699,51.49848]}},
{"type":"Feature","properties":{"name":"[DE-34359] Bierlokal Scharfe Ecke Wilhelmsplatz 1 Wochenende [Reinhardshagen]"},"geometry":{"type":"Point","coordinates":[9.60184,51.49607]}},
{"type":"Feature","properties":{"name":"[DE-34359] REINHARDSHAGEN/VECKERHAGEN: Zur Fähre. Weserfähre Zeiten: täglich außer Montag"},"geometry":{"type":"Point","coordinates":[9.60528,51.49806]}},
{"type":"Feature","properties":{"name":"[DE-34519] Diemelsee [Diemelsee]"},"geometry":{"type":"Point","coordinates":[8.71977,51.37334]}},
{"type":"Feature","properties":{"name":"[DE-34519] Diemeltalsperre Parkplatz an der Sperrmauer [Diemelsee]"},"geometry":{"type":"Point","coordinates":[8.72389,51.3525]}},
{"type":"Feature","properties":{"name":"[DE-34549] Edersee Sperrmauer [Edertal - Edersee]"},"geometry":{"type":"Point","coordinates":[9.0603,51.18585]}},
{"type":"Feature","properties":{"name":"[DE-34549] EDERTALSEE: Staumauer Edersee. Zeiten: täglich  nachmittags. Besonderheit: Wochenendtreff [Edertal - Hemfurth]"},"geometry":{"type":"Point","coordinates":[9.05383,51.16843]}},
{"type":"Feature","properties":{"name":"[DE-34549] Waldhotel Dornröschen"},"geometry":{"type":"Point","coordinates":[9.03575,51.17898]}},
{"type":"Feature","properties":{"name":"[DE-34549] Zündstoff Edersee"},"geometry":{"type":"Point","coordinates":[9.05493,51.16581]}},
{"type":"Feature","properties":{"name":"[DE-35578] Hofgut Magdalenenhäuser [Wetzlar - Magdalenenhausen]"},"geometry":{"type":"Point","coordinates":[8.483,50.54271]}},
{"type":"Feature","properties":{"name":"[DE-35649] Aartalgrill am See [L3053, 35649 Bischoffen] - JPR 04'2016"},"geometry":{"type":"Point","coordinates":[8.48018,50.6971]}},
{"type":"Feature","properties":{"name":"[DE-36110] Landgasthof Porta [Schlitz - Pfordt] - JPR 04'2016"},"geometry":{"type":"Point","coordinates":[9.59941,50.65738]}},
{"type":"Feature","properties":{"name":"[DE-36355] Oldtimer Café, Hartmannshainer Str.32"},"geometry":{"type":"Point","coordinates":[9.27246,50.47469]}},
{"type":"Feature","properties":{"name":"[DE-36391] Bikertreff Spessart - Landgasthof Jossgrund [Sinntal - Jossa] - JPR 04'2016"},"geometry":{"type":"Point","coordinates":[9.59335,50.23828]}},
{"type":"Feature","properties":{"name":"[DE-37194] Fähre bei Wahlsburg Weserstr. [Wahlsburg]"},"geometry":{"type":"Point","coordinates":[9.55195,51.6253]}},
{"type":"Feature","properties":{"name":"[DE-37194] Fähre bei Wahmbeck [Bodenfelde - Wahmbeck]"},"geometry":{"type":"Point","coordinates":[9.52288,51.62578]}},
{"type":"Feature","properties":{"name":"[DE-37194] Landhotel Zum Anker Weserstr.14 Dienstag Ruhetag [Wahlsburg]"},"geometry":{"type":"Point","coordinates":[9.5525,51.62445]}},
{"type":"Feature","properties":{"name":"[DE-37194] Onkel Palms Hütte Vorwerk5 Dienstag Ruhetag [Wahlsburg]"},"geometry":{"type":"Point","coordinates":[9.55017,51.6258]}},
{"type":"Feature","properties":{"name":"[DE-37217] Museum im Erlebisspark Ziegenberg 3 [Witzenhausen]"},"geometry":{"type":"Point","coordinates":[9.76754,51.37258]}},
{"type":"Feature","properties":{"name":"[DE-37603] Biker Kneipe Strubbelpeter Halbmondstr.8 ab 10Uhr bis 0Uhr [Holzminden]"},"geometry":{"type":"Point","coordinates":[9.44696,51.82936]}},
{"type":"Feature","properties":{"name":"[DE-37619] Fähre bei Hehlen [Hehlen]"},"geometry":{"type":"Point","coordinates":[9.46834,51.98726]}},
{"type":"Feature","properties":{"name":"[DE-37647] Fähre bei Polle [Polle - Lüningsburg]"},"geometry":{"type":"Point","coordinates":[9.40919,51.89647]}},
{"type":"Feature","properties":{"name":"[DE-37688] Fähre bei Würgassen [Beverungen - Würgassen]"},"geometry":{"type":"Point","coordinates":[9.41788,51.64442]}},
{"type":"Feature","properties":{"name":"[DE-37696] Brandt Berghotel Köterberg an der B239 bei Löwendorf Sonntags [Marienmünster - Löwendorf]"},"geometry":{"type":"Point","coordinates":[9.27948,51.84541]}},
{"type":"Feature","properties":{"name":"[DE-37697] Villa Löwenherz WürgasserStr5 [Lauenförde]"},"geometry":{"type":"Point","coordinates":[9.38657,51.65917]}},
{"type":"Feature","properties":{"name":"[DE-38154] Tetzelstein"},"geometry":{"type":"Point","coordinates":[10.7896,52.19615]}},
{"type":"Feature","properties":{"name":"[DE-38667] BRAUNLAGE: Torfhaus Zeiten: täglich"},"geometry":{"type":"Point","coordinates":[10.5375,51.80194]}},
{"type":"Feature","properties":{"name":"[DE-38889] Rappbode Talaperre Sa [Altenbrak - Wendefurth]"},"geometry":{"type":"Point","coordinates":[10.89253,51.74036]}},
{"type":"Feature","properties":{"name":"[DE-39114] Bike Ion Luisenthaler Str.119 77Fuß lange Bar Bike an Bar [Magdeburg - Prester]"},"geometry":{"type":"Point","coordinates":[11.67788,52.103]}},
{"type":"Feature","properties":{"name":"[DE-39264] Tequila Drive Dorfstr.13 Uriger Treffpunkt [Reuden]"},"geometry":{"type":"Point","coordinates":[12.30345,52.069]}},
{"type":"Feature","properties":{"name":"[DE-40210] Eckkneipe Blende"},"geometry":{"type":"Point","coordinates":[6.77682,51.21092]}},
{"type":"Feature","properties":{"name":"[DE-41061] Treffpunkt am Alten Markt"},"geometry":{"type":"Point","coordinates":[6.4313,51.19474]}},
{"type":"Feature","properties":{"name":"[DE-41179] Ellys Bikertreff"},"geometry":{"type":"Point","coordinates":[6.34072,51.13628]}},
{"type":"Feature","properties":{"name":"[DE-41334] Zum Kolbenklemmer"},"geometry":{"type":"Point","coordinates":[6.17786,51.31986]}},
{"type":"Feature","properties":{"name":"[DE-41379] Cafe Brösel"},"geometry":{"type":"Point","coordinates":[6.19445,51.24485]}},
{"type":"Feature","properties":{"name":"[DE-41569] Lichters Oldiethek Landstr.31 Horst ist Fernsehkoch WDR [Rommerskirchen - Nettesheim]"},"geometry":{"type":"Point","coordinates":[6.71144,51.04689]}},
{"type":"Feature","properties":{"name":"[DE-42279] Road Stop"},"geometry":{"type":"Point","coordinates":[7.21507,51.30274]}},
{"type":"Feature","properties":{"name":"[DE-42499] zornige ameise [Hückeswagen - Neuenherweg]"},"geometry":{"type":"Point","coordinates":[7.3636,51.14547]}},
{"type":"Feature","properties":{"name":"[DE-42551] Haus Hubertushöhe Rodberger Str.132 Biergarten 19 1Uhr [Velbert - Hefel]"},"geometry":{"type":"Point","coordinates":[7.06218,51.36682]}},
{"type":"Feature","properties":{"name":"[DE-42651] Cafe Hubraum"},"geometry":{"type":"Point","coordinates":[7.11028,51.19]}},
{"type":"Feature","properties":{"name":"[DE-42929] Cafe Schneider Kreckersweg 1a [Wermelskirchen - Wöllersberg]"},"geometry":{"type":"Point","coordinates":[7.22515,51.10759]}},
{"type":"Feature","properties":{"name":"[DE-44227] Road Stop oberhalb der Serpentien [Dortmund - Syburg]"},"geometry":{"type":"Point","coordinates":[7.48422,51.42552]}},
{"type":"Feature","properties":{"name":"[DE-45239] Haus Scheppen"},"geometry":{"type":"Point","coordinates":[7.04788,51.39827]}},
{"type":"Feature","properties":{"name":"[DE-45529] Bergerhof Hattingen [Hattingen - Oberporbeck]"},"geometry":{"type":"Point","coordinates":[7.19398,51.34516]}},
{"type":"Feature","properties":{"name":"[DE-45721] Biergarten Jup Haltern"},"geometry":{"type":"Point","coordinates":[7.2259,51.74048]}},
{"type":"Feature","properties":{"name":"[DE-45721] Drügen Pütt"},"geometry":{"type":"Point","coordinates":[7.20683,51.77881]}},
{"type":"Feature","properties":{"name":"[DE-45721] Lakeside-Inn"},"geometry":{"type":"Point","coordinates":[7.2426,51.74552]}},
{"type":"Feature","properties":{"name":"[DE-45768] Bikertreff Vogel"},"geometry":{"type":"Point","coordinates":[7.14201,51.70402]}},
{"type":"Feature","properties":{"name":"[DE-45899] Motorrad-Museum"},"geometry":{"type":"Point","coordinates":[7.03861,51.5251]}},
{"type":"Feature","properties":{"name":"[DE-46244] Grafenmühle"},"geometry":{"type":"Point","coordinates":[6.87359,51.5664]}},
{"type":"Feature","properties":{"name":"[DE-46325] Rhee-Tona"},"geometry":{"type":"Point","coordinates":[6.73888,51.82977]}},
{"type":"Feature","properties":{"name":"[DE-46325] Svens Biker Village"},"geometry":{"type":"Point","coordinates":[6.88691,51.80303]}},
{"type":"Feature","properties":{"name":"[DE-46419] Daddys Bikertreff"},"geometry":{"type":"Point","coordinates":[6.44373,51.81921]}},
{"type":"Feature","properties":{"name":"[DE-46499] Thunderbike Roadhouse"},"geometry":{"type":"Point","coordinates":[6.60128,51.72948]}},
{"type":"Feature","properties":{"name":"[DE-46509] Plaza del Mare Xantener Südsee"},"geometry":{"type":"Point","coordinates":[6.45725,51.67073]}},
{"type":"Feature","properties":{"name":"[DE-46509] Zur Rheinfähre"},"geometry":{"type":"Point","coordinates":[6.48122,51.66431]}},
{"type":"Feature","properties":{"name":"[DE-46562] Götterswickerhamm"},"geometry":{"type":"Point","coordinates":[6.66581,51.57963]}},
{"type":"Feature","properties":{"name":"[DE-47058] Kaiserberg [Duisburg] Kulttreff auf dem ZOO-Parkplatz"},"geometry":{"type":"Point","coordinates":[6.80896,51.43964]}},
{"type":"Feature","properties":{"name":"[DE-47441] Bikertreff Beans"},"geometry":{"type":"Point","coordinates":[6.61447,51.45807]}},
{"type":"Feature","properties":{"name":"[DE-47803] Mo`s Bikertreff"},"geometry":{"type":"Point","coordinates":[6.54061,51.34166]}},
{"type":"Feature","properties":{"name":"[DE-47877] Hofbräu im Märchenwald"},"geometry":{"type":"Point","coordinates":[6.5169,51.23301]}},
{"type":"Feature","properties":{"name":"[DE-48249] Rock & Blues Cafe Welte"},"geometry":{"type":"Point","coordinates":[7.23534,51.86513]}},
{"type":"Feature","properties":{"name":"[DE-48329] Loginusturm [Havixbeck - Uphoven]"},"geometry":{"type":"Point","coordinates":[7.36573,51.96043]}},
{"type":"Feature","properties":{"name":"[DE-48361] Motorradmuseum"},"geometry":{"type":"Point","coordinates":[8.13951,51.96297]}},
{"type":"Feature","properties":{"name":"[DE-48366] Parkplatz Laer Altenberger Str. [Laer]"},"geometry":{"type":"Point","coordinates":[7.39274,52.05504]}},
{"type":"Feature","properties":{"name":"[DE-48455] Villa Kunterbund"},"geometry":{"type":"Point","coordinates":[7.10159,52.29316]}},
{"type":"Feature","properties":{"name":"[DE-48465] Nordhorn / Isterberg Parkplatz [Isterberg]"},"geometry":{"type":"Point","coordinates":[7.14332,52.35639]}},
{"type":"Feature","properties":{"name":"[DE-48485] Cafe Cross"},"geometry":{"type":"Point","coordinates":[7.35159,52.28115]}},
{"type":"Feature","properties":{"name":"[DE-48607] Felsenmühle"},"geometry":{"type":"Point","coordinates":[7.17919,52.19136]}},
{"type":"Feature","properties":{"name":"[DE-48624] Cafe Bleifrei"},"geometry":{"type":"Point","coordinates":[7.21606,52.10591]}},
{"type":"Feature","properties":{"name":"[DE-48712] BieBie´s"},"geometry":{"type":"Point","coordinates":[7.02586,51.94305]}},
{"type":"Feature","properties":{"name":"[DE-48712] Bikertreff- Hochmoor"},"geometry":{"type":"Point","coordinates":[7.04236,51.89217]}},
{"type":"Feature","properties":{"name":"[DE-49196] Voßbrink Bikertref nur Donnerstags [Bad Laer - Hardensetten]"},"geometry":{"type":"Point","coordinates":[8.08365,52.08174]}},
{"type":"Feature","properties":{"name":"[DE-49401] Parc-Cafe [NEUENWALDE]"},"geometry":{"type":"Point","coordinates":[8.15411,52.50336]}},
{"type":"Feature","properties":{"name":"[DE-49479] Motorradmuseum Ibbenbüren"},"geometry":{"type":"Point","coordinates":[7.73117,52.25272]}},
{"type":"Feature","properties":{"name":"[DE-49536] Waldwirtschaft Malepartus"},"geometry":{"type":"Point","coordinates":[7.98017,52.15936]}},
{"type":"Feature","properties":{"name":"[DE-49545] Parkplatz Münsterlandblick [Tecklenburg]"},"geometry":{"type":"Point","coordinates":[7.80547,52.21895]}},
{"type":"Feature","properties":{"name":"[DE-49849] 49849 Wilsum, Echtelerstrasse 6, Imbiss & Bikertreff"},"geometry":{"type":"Point","coordinates":[6.83242,52.53997]}},
{"type":"Feature","properties":{"name":"[DE-51379] 42799 Leichlingen"},"geometry":{"type":"Point","coordinates":[6.99407,51.09467]}},
{"type":"Feature","properties":{"name":"[DE-51399] Oldtimertreff"},"geometry":{"type":"Point","coordinates":[7.15852,51.10364]}},
{"type":"Feature","properties":{"name":"[DE-51515] Landhaus Fuchs Unterbersten [Kürten - Unterbersten]"},"geometry":{"type":"Point","coordinates":[7.30764,51.03073]}},
{"type":"Feature","properties":{"name":"[DE-51570] Bikertreff Burg Caffee [Windeck - Übersetzig]"},"geometry":{"type":"Point","coordinates":[7.56015,50.80328]}},
{"type":"Feature","properties":{"name":"[DE-51647] Alt Aggersee Derschlagerstr. [Gummersbach - Lantenbach]"},"geometry":{"type":"Point","coordinates":[7.62702,51.05299]}},
{"type":"Feature","properties":{"name":"[DE-51688] 51688 Wipperfürth"},"geometry":{"type":"Point","coordinates":[7.36386,51.08076]}},
{"type":"Feature","properties":{"name":"[DE-51688] Bevertalsperre, Imbissbuden [Wipperfürth - Klitzhaufe] - JPR04'2016"},"geometry":{"type":"Point","coordinates":[7.37415,51.14164]}},
{"type":"Feature","properties":{"name":"[DE-51688] Bevertalsperre, Imbissbuden [Wipperfürth - Klitzhaufe] - JPR04'2016"},"geometry":{"type":"Point","coordinates":[7.37415,51.14164]}},
{"type":"Feature","properties":{"name":"[DE-51688] Bevertalsperre, Imbissbuden [Wipperfürth - Klitzhaufe] - JPR04'2016"},"geometry":{"type":"Point","coordinates":[7.37415,51.14164]}},
{"type":"Feature","properties":{"name":"[DE-51688] Bevertalsperre, Imbissbuden [Wipperfürth - Klitzhaufe] - JPR04'2016"},"geometry":{"type":"Point","coordinates":[7.37415,51.14164]}},
{"type":"Feature","properties":{"name":"[DE-51688] Bevertalsperre, Imbissbuden [Wipperfürth - Klitzhaufe] - JPR04'2016"},"geometry":{"type":"Point","coordinates":[7.37415,51.14164]}},
{"type":"Feature","properties":{"name":"[DE-51688] Bevertalsperre, Imbissbuden [Wipperfürth - Klitzhaufe] - JPR04'2016"},"geometry":{"type":"Point","coordinates":[7.37415,51.14164]}},
{"type":"Feature","properties":{"name":"[DE-51688] Bevertalsperre, Imbissbuden [Wipperfürth - Klitzhaufe] - JPR04'2016"},"geometry":{"type":"Point","coordinates":[7.37415,51.14164]}},
{"type":"Feature","properties":{"name":"[DE-51688] Bevertalsperre, Imbissbuden [Wipperfürth - Klitzhaufe] - JPR04'2016"},"geometry":{"type":"Point","coordinates":[7.37415,51.14164]}},
{"type":"Feature","properties":{"name":"[DE-51709] Schloßhotel Gimborn - Marienheide, Schlossstraße 15 - JPR 04'2016"},"geometry":{"type":"Point","coordinates":[7.47601,51.06107]}},
{"type":"Feature","properties":{"name":"[DE-51709] Turm Unnenberg 507m"},"geometry":{"type":"Point","coordinates":[7.61119,51.06453]}},
{"type":"Feature","properties":{"name":"[DE-52066] Bushaltestelle Oldtimertreffpunkt [Aachen - Siegel]"},"geometry":{"type":"Point","coordinates":[6.09855,50.75156]}},
{"type":"Feature","properties":{"name":"[DE-52152] Biker-Ranch Di-Fr 12:00-01:00h Sa So 09:00-01:00h [Simmerath - Strauch]"},"geometry":{"type":"Point","coordinates":[6.32499,50.62236]}},
{"type":"Feature","properties":{"name":"[DE-52152] Rurberg Täglich 8.00  22.00Uhr [Simmerath - Rurberg]"},"geometry":{"type":"Point","coordinates":[6.38368,50.60754]}},
{"type":"Feature","properties":{"name":"[DE-52152] Rursee Staumauer [Simmerath - Rurberg]"},"geometry":{"type":"Point","coordinates":[6.38897,50.60732]}},
{"type":"Feature","properties":{"name":"[DE-52385] Green Mile, Dürener Str. 2"},"geometry":{"type":"Point","coordinates":[6.52264,50.68157]}},
{"type":"Feature","properties":{"name":"[DE-52396] Gerdas Bikertreff"},"geometry":{"type":"Point","coordinates":[6.4451,50.63309]}},
{"type":"Feature","properties":{"name":"[DE-52396] Hausener Kaffeestübchen, Heimbach-Hausen, An der Kirche 3 - JPR 04'2016"},"geometry":{"type":"Point","coordinates":[6.49416,50.65219]}},
{"type":"Feature","properties":{"name":"[DE-53359] Bikercafe Zu den 4 Winden"},"geometry":{"type":"Point","coordinates":[6.91685,50.58019]}},
{"type":"Feature","properties":{"name":"[DE-53506] Cafe Ahrwind - Hauptstr.45 Ahrbrück [Ahrbrück - Brück] - JPR 04'2016"},"geometry":{"type":"Point","coordinates":[6.97366,50.48599]}},
{"type":"Feature","properties":{"name":"[DE-53506] Cafe Fahrtwind, Ahrbrück,  Eifel [Ahrbrück - Brück] - JPR 04'2016"},"geometry":{"type":"Point","coordinates":[6.96259,50.47394]}},
{"type":"Feature","properties":{"name":"[DE-53518] Café zur Nordschleife"},"geometry":{"type":"Point","coordinates":[6.95085,50.37711]}},
{"type":"Feature","properties":{"name":"[DE-53520] BMW Bikertreff am Nürburgring Gewerbegebiet [Meuspath]"},"geometry":{"type":"Point","coordinates":[6.97639,50.34896]}},
{"type":"Feature","properties":{"name":"[DE-53520] Erlebniswelt am Nürburgring Nürburg 10 17Uhr [Nürburg - Balkhausen]"},"geometry":{"type":"Point","coordinates":[6.94908,50.33556]}},
{"type":"Feature","properties":{"name":"[DE-53520] Haus Waldfrieden Münstereiflerstr.1 [Schuld]"},"geometry":{"type":"Point","coordinates":[6.88921,50.44714]}},
{"type":"Feature","properties":{"name":"[DE-53520] Nordschleife Nürburgring [Meuspath]"},"geometry":{"type":"Point","coordinates":[6.97373,50.33823]}},
{"type":"Feature","properties":{"name":"[DE-53539] Welcherather Einkehr/ Formel M Hauptstr. [Reimerath]"},"geometry":{"type":"Point","coordinates":[6.96605,50.31968]}},
{"type":"Feature","properties":{"name":"[DE-53547] Malberg-Hütte - Hausen (Wied), Dorfstraße 9 - JPR 04'2016>02638 946731"},"geometry":{"type":"Point","coordinates":[7.38793,50.53233]}},
{"type":"Feature","properties":{"name":"[DE-53577] Nescher Mühle [Neustadt - Hohnsberg]"},"geometry":{"type":"Point","coordinates":[7.42718,50.59002]}},
{"type":"Feature","properties":{"name":"[DE-53797] Gasthaus Flohberg Pützrather Weg 1 [Lohmar - Donrath]"},"geometry":{"type":"Point","coordinates":[7.21798,50.85565]}},
{"type":"Feature","properties":{"name":"[DE-53804] Café Alte Schule"},"geometry":{"type":"Point","coordinates":[7.45715,50.91173]}},
{"type":"Feature","properties":{"name":"[DE-53809] Futterkrippe Rathausstr.17 Ruppichteroth Schönenberg [Ruppichteroth - Schönenberg]"},"geometry":{"type":"Point","coordinates":[7.43822,50.83846]}},
{"type":"Feature","properties":{"name":"[DE-53937] Bikers-Inn Morsbach"},"geometry":{"type":"Point","coordinates":[6.44398,50.56058]}},
{"type":"Feature","properties":{"name":"[DE-54293] Forsthaus Altenhof Aacher Weg 86 So morgens [Trier - Trier-West]"},"geometry":{"type":"Point","coordinates":[6.65799,49.78298]}},
{"type":"Feature","properties":{"name":"[DE-54550] Alte Schmiede Alte Roßgasse 2 Do Ruhetag [Daun - Pützborn]"},"geometry":{"type":"Point","coordinates":[6.81369,50.19381]}},
{"type":"Feature","properties":{"name":"[DE-54552] Beim Holzschnitzer"},"geometry":{"type":"Point","coordinates":[6.7919,50.2627]}},
{"type":"Feature","properties":{"name":"[DE-54578] Nohner Mühle - Nohn, Nohner Mühle 2 - JPR 04'2016>+49 02696 - 1314"},"geometry":{"type":"Point","coordinates":[6.80805,50.27531]}},
{"type":"Feature","properties":{"name":"[DE-54646] Arte die Kulturkneipe Prümtalstr.5 [Bettingen]"},"geometry":{"type":"Point","coordinates":[6.41114,49.94538]}},
{"type":"Feature","properties":{"name":"[DE-56271] Zur Isenburg Hauptstr.13 WE [Isenburg]"},"geometry":{"type":"Point","coordinates":[7.59024,50.47508]}},
{"type":"Feature","properties":{"name":"[DE-56332] Bikershouse an der Mosel"},"geometry":{"type":"Point","coordinates":[7.38896,50.21173]}},
{"type":"Feature","properties":{"name":"[DE-56332] Moselhotel Burgcafe Moselstr.11 WE [Alken]"},"geometry":{"type":"Point","coordinates":[7.4465,50.24654]}},
{"type":"Feature","properties":{"name":"[DE-56340] Lindenhof B42 Rheinuferstr.9 Bikerfreundlicheshotel [Osterspai]"},"geometry":{"type":"Point","coordinates":[7.61729,50.24622]}},
{"type":"Feature","properties":{"name":"[DE-56637] Geromont Römerstr.3a Ausflugslokal mit Hotel [Plaidt]"},"geometry":{"type":"Point","coordinates":[7.38968,50.395]}},
{"type":"Feature","properties":{"name":"[DE-56745] Eifeler Seehütte - Rieden, Dr. Georg Klinkhammer Weg 1  - JPR 04'2015"},"geometry":{"type":"Point","coordinates":[7.16311,50.39049]}},
{"type":"Feature","properties":{"name":"[DE-57250] Lützeltreff [57271 Hilchenbach, zwischen Afholderbach und Lützeln an der B62] - JPR 04'2016"},"geometry":{"type":"Point","coordinates":[8.14479,50.95075]}},
{"type":"Feature","properties":{"name":"[DE-57368] Hohe Bracht, Lennestadt, JPR 04'2015"},"geometry":{"type":"Point","coordinates":[8.04391,51.08429]}},
{"type":"Feature","properties":{"name":"[DE-57399] Rhein - Weser - Turm"},"geometry":{"type":"Point","coordinates":[8.19746,51.07193]}},
{"type":"Feature","properties":{"name":"[DE-57439] Motorradtreff Biggesee [Attendorn - Wamge]"},"geometry":{"type":"Point","coordinates":[7.85299,51.08621]}},
{"type":"Feature","properties":{"name":"[DE-57548] Bikers Inn im alten Bahnhof [Kirchen]"},"geometry":{"type":"Point","coordinates":[7.85652,50.82083]}},
{"type":"Feature","properties":{"name":"[DE-57632] Bikers Canyon"},"geometry":{"type":"Point","coordinates":[7.55976,50.62847]}},
{"type":"Feature","properties":{"name":"[DE-57642] Alpenröder-Hütte - Alpenrod, Auf dem Gräbersberg - JPR 04'2015>02662 - 94 37 54"},"geometry":{"type":"Point","coordinates":[7.85368,50.62772]}},
{"type":"Feature","properties":{"name":"[DE-58099] Hohensyburg die Mutter aller Treffpunkte So am P. Hengsteysee [Hagen - Bathey]"},"geometry":{"type":"Point","coordinates":[7.47793,51.41493]}},
{"type":"Feature","properties":{"name":"[DE-58579] Glörtalsperre K7 Parkplatz an der Talsperre Cafes [Schalksmühle - Im Dahl]"},"geometry":{"type":"Point","coordinates":[7.50016,51.24335]}},
{"type":"Feature","properties":{"name":"[DE-58579] Mesekendahl"},"geometry":{"type":"Point","coordinates":[7.61178,51.27492]}},
{"type":"Feature","properties":{"name":"[DE-59071] Brauhaus Wilshof, 59071 Hamm, Baumstrasse 34"},"geometry":{"type":"Point","coordinates":[7.90255,51.67054]}},
{"type":"Feature","properties":{"name":"[DE-59394] Biker Treff Nordkirchen"},"geometry":{"type":"Point","coordinates":[7.50622,51.72556]}},
{"type":"Feature","properties":{"name":"[DE-59423] Bikertreff"},"geometry":{"type":"Point","coordinates":[7.70385,51.49973]}},
{"type":"Feature","properties":{"name":"[DE-59519] Bikers In am Möhnesee"},"geometry":{"type":"Point","coordinates":[8.16349,51.49175]}},
{"type":"Feature","properties":{"name":"[DE-59519] Geronimo lodge [Möhnesee - Neuhaus]"},"geometry":{"type":"Point","coordinates":[8.08971,51.4904]}},
{"type":"Feature","properties":{"name":"[DE-59519] Möhnetalsperre [Möhnesee]"},"geometry":{"type":"Point","coordinates":[8.06167,51.49139]}},
{"type":"Feature","properties":{"name":"[DE-59519] Wolfs Revier [Möhnesee - Brünningsen]"},"geometry":{"type":"Point","coordinates":[8.06192,51.49191]}},
{"type":"Feature","properties":{"name":"[DE-59846] Motorradtreff Sorpesee [Sundern]"},"geometry":{"type":"Point","coordinates":[7.95645,51.35069]}},
{"type":"Feature","properties":{"name":"[DE-59846] Sorpesee Kiosk zur kleinen Rast [Sundern - Langscheid]"},"geometry":{"type":"Point","coordinates":[7.95519,51.3479]}},
{"type":"Feature","properties":{"name":"[DE-59929] Altenbürener Mühle Tel. 02961 2100 [Brilon - Scharfenberg]"},"geometry":{"type":"Point","coordinates":[8.53175,51.40328]}},
{"type":"Feature","properties":{"name":"[DE-59929] Berggasthof Kemper Plattenberg 2 [Brilon - Messinghausen]"},"geometry":{"type":"Point","coordinates":[8.65473,51.3915]}},
{"type":"Feature","properties":{"name":"[DE-59955] Big Mountain"},"geometry":{"type":"Point","coordinates":[8.51269,51.18919]}},
{"type":"Feature","properties":{"name":"[DE-59955] Bikers Herrloh  Am Waltenberg 67a"},"geometry":{"type":"Point","coordinates":[8.51923,51.19224]}},
{"type":"Feature","properties":{"name":"[DE-61389] Dorfweil [Schmitten - Dorfweil]"},"geometry":{"type":"Point","coordinates":[8.45645,50.28171]}},
{"type":"Feature","properties":{"name":"[DE-61389] Großer Feldberg (oben) [Schmitten - Am Feldberg]"},"geometry":{"type":"Point","coordinates":[8.45785,50.23228]}},
{"type":"Feature","properties":{"name":"[DE-61462] Applauskurve Feldberg [Königstein - Fuchstanz]"},"geometry":{"type":"Point","coordinates":[8.47836,50.22613]}},
{"type":"Feature","properties":{"name":"[DE-63679] Falltorhaus [Schotten - Betzenrod] - JPR 04'2016"},"geometry":{"type":"Point","coordinates":[9.09495,50.51341]}},
{"type":"Feature","properties":{"name":"[DE-63869] Waldhaus Zum Engländer [Heigenbrücken - Jakobsthal] - JPR 04'2016"},"geometry":{"type":"Point","coordinates":[9.3119,50.05644]}},
{"type":"Feature","properties":{"name":"[DE-64678] Zur Linde Nibelungenstr. nahe der B47 [Lindenfels]"},"geometry":{"type":"Point","coordinates":[8.78026,49.68474]}},
{"type":"Feature","properties":{"name":"[DE-64686] Felsenmeer Nibelungenstr. [Lautertal - Marienberg]"},"geometry":{"type":"Point","coordinates":[8.71601,49.71901]}},
{"type":"Feature","properties":{"name":"[DE-64711] Marbach Stausee Odenwald [Erbach - Haisterbach]"},"geometry":{"type":"Point","coordinates":[8.97639,49.60972]}},
{"type":"Feature","properties":{"name":"[DE-64720] Motorradmuseum Michelstadt"},"geometry":{"type":"Point","coordinates":[9.00293,49.68762]}},
{"type":"Feature","properties":{"name":"[DE-64754] Kailbach [Hesseneck - Kailbach]"},"geometry":{"type":"Point","coordinates":[9.07699,49.53577]}},
{"type":"Feature","properties":{"name":"[DE-64754] Motorcafe Hill Up Siegfriedstr.53 [Hesseneck - Schöllenbach]"},"geometry":{"type":"Point","coordinates":[9.06782,49.56686]}},
{"type":"Feature","properties":{"name":"[DE-64754] Zur Waldeslust Siegfriedstr.57 [Hesseneck - Schöllenbach]"},"geometry":{"type":"Point","coordinates":[9.06799,49.56673]}},
{"type":"Feature","properties":{"name":"[DE-64759] Sennsbachtal [Sensbachtal]"},"geometry":{"type":"Point","coordinates":[9.01117,49.54952]}},
{"type":"Feature","properties":{"name":"[DE-65185] Yamaha Klose"},"geometry":{"type":"Point","coordinates":[8.23558,50.07452]}},
{"type":"Feature","properties":{"name":"[DE-65321] Wisperstube [Heidenrod - Geroldstein]"},"geometry":{"type":"Point","coordinates":[7.9402,50.10823]}},
{"type":"Feature","properties":{"name":"[DE-65326] Parkplatz B54 bei Michelbach"},"geometry":{"type":"Point","coordinates":[8.04452,50.22725]}},
{"type":"Feature","properties":{"name":"[DE-65468] Motorradtreff Kornsand [Trebur - Kornsand]"},"geometry":{"type":"Point","coordinates":[8.35505,49.86672]}},
{"type":"Feature","properties":{"name":"[DE-66620] Pilsstube Oasis Buweller Str.4 [Nonnweiler - Kastel]"},"geometry":{"type":"Point","coordinates":[6.96831,49.56994]}},
{"type":"Feature","properties":{"name":"[DE-66663] Roemer Schankstr.2 Biergarten [Merzig]"},"geometry":{"type":"Point","coordinates":[6.63461,49.43898]}},
{"type":"Feature","properties":{"name":"[DE-66706] Alexandras Kneipchen Metzer Str.26 [Perl - Besch]"},"geometry":{"type":"Point","coordinates":[6.36938,49.50293]}},
{"type":"Feature","properties":{"name":"[DE-66773] Cafe Stormwind [Schwalbach - Waldhexe]"},"geometry":{"type":"Point","coordinates":[6.83497,49.31178]}},
{"type":"Feature","properties":{"name":"[DE-66822] Bistro Chamälion Kreuzheckerstr.4 [Lebach - Gresaubach]"},"geometry":{"type":"Point","coordinates":[6.90203,49.45377]}},
{"type":"Feature","properties":{"name":"[DE-67596] Parkplatz am Turmlokal Auf dem Kloppberg [Dittelsheim-Heßloch]"},"geometry":{"type":"Point","coordinates":[8.24576,49.74127]}},
{"type":"Feature","properties":{"name":"[DE-67685] Thomas Hojnatzki [Eulenbis]"},"geometry":{"type":"Point","coordinates":[7.63621,49.50775]}},
{"type":"Feature","properties":{"name":"[DE-67705] Cafe Nicklis am Johanniskreuz 3 [Trippstadt]"},"geometry":{"type":"Point","coordinates":[7.82505,49.33784]}},
{"type":"Feature","properties":{"name":"[DE-67705] Johanniskreuz [TRIPPSTADT]"},"geometry":{"type":"Point","coordinates":[7.82626,49.33637]}},
{"type":"Feature","properties":{"name":"[DE-71229] Glemseckstr. gegenüber vom Hotel [Leonberg-Glemseck]"},"geometry":{"type":"Point","coordinates":[9.04156,48.76752]}},
{"type":"Feature","properties":{"name":"[DE-72361] Lochen [Hausen - Oberhausen]"},"geometry":{"type":"Point","coordinates":[8.85144,48.22144]}},
{"type":"Feature","properties":{"name":"[DE-73111] Ställe [Lauterstein]"},"geometry":{"type":"Point","coordinates":[9.88122,48.71105]}},
{"type":"Feature","properties":{"name":"[DE-73667] Ebni-See (30.07.07 09:28:48 -1770929916°/-1908381298kmh"},"geometry":{"type":"Point","coordinates":[9.60898,48.91808]}},
{"type":"Feature","properties":{"name":"[DE-74245] Bikertreff Platte mit Imbissbude [Löwenstein - Reisach]"},"geometry":{"type":"Point","coordinates":[9.39554,49.09222]}},
{"type":"Feature","properties":{"name":"[DE-74249] Trautenhof [Trautenhof]"},"geometry":{"type":"Point","coordinates":[9.45505,49.2882]}},
{"type":"Feature","properties":{"name":"[DE-74821] Rode Station [Mosbach - Bergfeld]"},"geometry":{"type":"Point","coordinates":[9.1806,49.34444]}},
{"type":"Feature","properties":{"name":"[DE-76774] Fähre"},"geometry":{"type":"Point","coordinates":[8.36615,49.11574]}},
{"type":"Feature","properties":{"name":"[DE-78120] Hexenlochmühle"},"geometry":{"type":"Point","coordinates":[8.14291,48.01163]}},
{"type":"Feature","properties":{"name":"[DE-78234] Café Rest. Hegaustern"},"geometry":{"type":"Point","coordinates":[8.7265,47.88225]}},
{"type":"Feature","properties":{"name":"[DE-78234] Hegaublick [Engen - Stetten]"},"geometry":{"type":"Point","coordinates":[8.72826,47.88354]}},
{"type":"Feature","properties":{"name":"[DE-79837] Café Drehzahl"},"geometry":{"type":"Point","coordinates":[8.18763,47.75582]}},
{"type":"Feature","properties":{"name":"[DE-83080] B307  Tatzelwurm [Oberaudorf - Aschau]"},"geometry":{"type":"Point","coordinates":[12.08452,47.67248]}},
{"type":"Feature","properties":{"name":"[DE-88682] Bikers Inn"},"geometry":{"type":"Point","coordinates":[9.29107,47.77647]}},
{"type":"Feature","properties":{"name":"[DE-91347] Kathi Bräu"},"geometry":{"type":"Point","coordinates":[11.2439,49.87971]}},
{"type":"Feature","properties":{"name":"[DE-92366] Fichten-Ranch, Fichten 1, Grossbissendorf"},"geometry":{"type":"Point","coordinates":[11.81732,49.19654]}},
{"type":"Feature","properties":{"name":"[DE-94252] Arbersee [Bayerisch Eisenstein - Arberseehaus]"},"geometry":{"type":"Point","coordinates":[13.15899,49.099]}},
{"type":"Feature","properties":{"name":"[DE-94379] Grün bei St.Englmar"},"geometry":{"type":"Point","coordinates":[12.7929,49.01217]}},
{"type":"Feature","properties":{"name":"[DE-94469] Auto Vogel Deggendorf [Natternberg]"},"geometry":{"type":"Point","coordinates":[12.91136,48.82194]}},
{"type":"Feature","properties":{"name":"[DE-94469] Wegmacherkurve [Deggendorf - Irlmoos]"},"geometry":{"type":"Point","coordinates":[13.04859,48.87629]}},
{"type":"Feature","properties":{"name":"[DE-97778] Waldschänke Bayrische Schanz [Fellen - Neuhof] - JPR 04'2016"},"geometry":{"type":"Point","coordinates":[9.52496,50.10566]}},
{"type":"Feature","properties":{"name":"[DE-98544] Gasthaus & Hotel Sterngrund"},"geometry":{"type":"Point","coordinates":[10.68813,50.68233]}},
{"type":"Feature","properties":{"name":"[DE-99755] Hostel und DDR Restaurant [Hohenstein]"},"geometry":{"type":"Point","coordinates":[10.58989,51.55923]}},
{"type":"Feature","properties":{"name":"[DE-99826] Zella"},"geometry":{"type":"Point","coordinates":[10.29642,51.10692]}},
{"type":"Feature","properties":{"name":"[DE-D-81379] Alter Wirt (MB Treff)"},"geometry":{"type":"Point","coordinates":[11.54527,48.10045]}},
{"type":"Feature","properties":{"name":"[DE-D-82049] Waldwirtschaft"},"geometry":{"type":"Point","coordinates":[11.53815,48.06759]}},
{"type":"Feature","properties":{"name":"[DE-D-82383] Bayrischer Rigi"},"geometry":{"type":"Point","coordinates":[11.01459,47.80097]}},
{"type":"Feature","properties":{"name":"[DE-D-82488] Café Rest. Edelweis"},"geometry":{"type":"Point","coordinates":[11.09451,47.56862]}},
{"type":"Feature","properties":{"name":"[DE-D-83339] Kupferschmiede"},"geometry":{"type":"Point","coordinates":[12.4923,47.92976]}},
{"type":"Feature","properties":{"name":"[DE-D-83661] Gasthaus Post"},"geometry":{"type":"Point","coordinates":[11.43635,47.5593]}},
{"type":"Feature","properties":{"name":"[DE-D-85235] Gasthaus zur Sonne"},"geometry":{"type":"Point","coordinates":[11.19573,48.31114]}},
{"type":"Feature","properties":{"name":"[DE-D-86975] Auf dem Auerberg"},"geometry":{"type":"Point","coordinates":[10.7368,47.73529]}},
{"type":"Feature","properties":{"name":"[DE-D-88138] Manfreds Biker-Mühle"},"geometry":{"type":"Point","coordinates":[9.81296,47.63551]}},
{"type":"Feature","properties":{"name":"[DK-6340] Annies Kiosk"},"geometry":{"type":"Point","coordinates":[9.49601,54.85957]}}]