[
{"type":"Feature","properties":{"name":"Shell-Tanke in Unterschbach"},
"geometry":{"type":"Point","coordinates":[50.946202, 7.219288]}},
{"type":"Feature","properties":{"ele":null,"time":null,"magvar":null,"geoidheight":null,"name":"[DE-51688] Bevertalsperre, Imbissbuden [Wipperfürth - Klitzhaufe] - JPR04'2016","cmt":null,"desc":null,"src":null,"link1_href":null,"link1_text":null,"link1_type":null,"link2_href":null,"link2_text":null,"link2_type":null,"sym":null,"type":null,"fix":null,"sat":null,"hdop":null,"vdop":null,"pdop":null,"ageofdgpsdata":null,"dgpsid":null},"geometry":{"type":"Point","coordinates":[7.37415,51.14164]}},
{"type":"Feature","properties":{"ele":null,"time":null,"magvar":null,"geoidheight":null,"name":"[DE-51709] Schloßhotel Gimborn - Marienheide, Schlossstraße 15 - JPR 04'2016","cmt":null,"desc":null,"src":null,"link1_href":null,"link1_text":null,"link1_type":null,"link2_href":null,"link2_text":null,"link2_type":null,"sym":null,"type":null,"fix":null,"sat":null,"hdop":null,"vdop":null,"pdop":null,"ageofdgpsdata":null,"dgpsid":null},"geometry":{"type":"Point","coordinates":[7.47601,51.06107]}},
{"type":"Feature","properties":{"ele":null,"time":null,"magvar":null,"geoidheight":null,"name":"[DE-52396] Hausener Kaffeestübchen, Heimbach-Hausen, An der Kirche 3 - JPR 04'2016","cmt":null,"desc":null,"src":null,"link1_href":null,"link1_text":null,"link1_type":null,"link2_href":null,"link2_text":null,"link2_type":null,"sym":null,"type":null,"fix":null,"sat":null,"hdop":null,"vdop":null,"pdop":null,"ageofdgpsdata":null,"dgpsid":null},"geometry":{"type":"Point","coordinates":[6.49416,50.65219]}},
{"type":"Feature","properties":{"ele":null,"time":null,"magvar":null,"geoidheight":null,"name":"[DE-53506] Cafe Fahrtwind, Ahrbrück,  Eifel [Ahrbrück - Brück] - JPR 04'2016","cmt":null,"desc":null,"src":null,"link1_href":null,"link1_text":null,"link1_type":null,"link2_href":null,"link2_text":null,"link2_type":null,"sym":null,"type":null,"fix":null,"sat":null,"hdop":null,"vdop":null,"pdop":null,"ageofdgpsdata":null,"dgpsid":null},"geometry":{"type":"Point","coordinates":[6.96259,50.47394]}},
{"type":"Feature","properties":{"ele":null,"time":null,"magvar":null,"geoidheight":null,"name":"[DE-53506] Cafe Ahrwind - Hauptstr.45 Ahrbrück [Ahrbrück - Brück] - JPR 04'2016","cmt":null,"desc":null,"src":null,"link1_href":null,"link1_text":null,"link1_type":null,"link2_href":null,"link2_text":null,"link2_type":null,"sym":null,"type":null,"fix":null,"sat":null,"hdop":null,"vdop":null,"pdop":null,"ageofdgpsdata":null,"dgpsid":null},"geometry":{"type":"Point","coordinates":[6.97366,50.48599]}},
{"type":"Feature","properties":{"ele":null,"time":null,"magvar":null,"geoidheight":null,"name":"[DE-53547] Malberg-Hütte - Hausen (Wied), Dorfstraße 9 - JPR 04'2016>02638 946731","cmt":null,"desc":null,"src":null,"link1_href":null,"link1_text":null,"link1_type":null,"link2_href":null,"link2_text":null,"link2_type":null,"sym":null,"type":null,"fix":null,"sat":null,"hdop":null,"vdop":null,"pdop":null,"ageofdgpsdata":null,"dgpsid":null},"geometry":{"type":"Point","coordinates":[7.38793,50.53233]}},
{"type":"Feature","properties":{"ele":null,"time":null,"magvar":null,"geoidheight":null,"name":"[DE-54578] Nohner Mühle - Nohn, Nohner Mühle 2 - JPR 04'2016>+49 02696 - 1314","cmt":null,"desc":null,"src":null,"link1_href":null,"link1_text":null,"link1_type":null,"link2_href":null,"link2_text":null,"link2_type":null,"sym":null,"type":null,"fix":null,"sat":null,"hdop":null,"vdop":null,"pdop":null,"ageofdgpsdata":null,"dgpsid":null},"geometry":{"type":"Point","coordinates":[6.80805,50.27531]}},
{"type":"Feature","properties":{"ele":null,"time":null,"magvar":null,"geoidheight":null,"name":"[DE-57368] Hohe Bracht, Lennestadt, JPR 04'2015","cmt":null,"desc":null,"src":null,"link1_href":null,"link1_text":null,"link1_type":null,"link2_href":null,"link2_text":null,"link2_type":null,"sym":null,"type":null,"fix":null,"sat":null,"hdop":null,"vdop":null,"pdop":null,"ageofdgpsdata":null,"dgpsid":null},"geometry":{"type":"Point","coordinates":[8.04391,51.08429]}},
{"type":"Feature","properties":{"ele":null,"time":null,"magvar":null,"geoidheight":null,"name":"[DE-56745] Eifeler Seehütte - Rieden, Dr. Georg Klinkhammer Weg 1  - JPR 04'2015","cmt":null,"desc":null,"src":null,"link1_href":null,"link1_text":null,"link1_type":null,"link2_href":null,"link2_text":null,"link2_type":null,"sym":null,"type":null,"fix":null,"sat":null,"hdop":null,"vdop":null,"pdop":null,"ageofdgpsdata":null,"dgpsid":null},"geometry":{"type":"Point","coordinates":[7.16311,50.39049]}},
{"type":"Feature","properties":{"ele":null,"time":null,"magvar":null,"geoidheight":null,"name":"[DE-57642] Alpenröder-Hütte - Alpenrod, Auf dem Gräbersberg - JPR 04'2015>02662 - 94 37 54","cmt":null,"desc":null,"src":null,"link1_href":null,"link1_text":null,"link1_type":null,"link2_href":null,"link2_text":null,"link2_type":null,"sym":null,"type":null,"fix":null,"sat":null,"hdop":null,"vdop":null,"pdop":null,"ageofdgpsdata":null,"dgpsid":null},"geometry":{"type":"Point","coordinates":[7.85368,50.62772]}},
{"type":"Feature","properties":{"ele":null,"time":null,"magvar":null,"geoidheight":null,"name":"[CH-4632] Töfftreff immer Donnerstag Abend  TRIMBACH [Trimbach]","cmt":null,"desc":null,"src":null,"link1_href":null,"link1_text":null,"link1_type":null,"link2_href":null,"link2_text":null,"link2_type":null,"sym":null,"type":null,"fix":null,"sat":null,"hdop":null,"vdop":null,"pdop":null,"ageofdgpsdata":null,"dgpsid":null},"geometry":{"type":"Point","coordinates":[7.8827,47.3674]}},
{"type":"Feature","properties":{"ele":null,"time":null,"magvar":null,"geoidheight":null,"name":"[CH-8182] Rest Kaserne. 1er Freitag im Monat ab 19uhr [Hochfelden]","cmt":null,"desc":null,"src":null,"link1_href":null,"link1_text":null,"link1_type":null,"link2_href":null,"link2_text":null,"link2_type":null,"sym":null,"type":null,"fix":null,"sat":null,"hdop":null,"vdop":null,"pdop":null,"ageofdgpsdata":null,"dgpsid":null},"geometry":{"type":"Point","coordinates":[8.52363,47.51192]}},
{"type":"Feature","properties":{"ele":null,"time":null,"magvar":null,"geoidheight":null,"name":"[DE-79837] Café Drehzahl","cmt":null,"desc":"Häusern, Schwarzabruck 3","src":null,"link1_href":null,"link1_text":null,"link1_type":null,"link2_href":null,"link2_text":null,"link2_type":null,"sym":null,"type":null,"fix":null,"sat":null,"hdop":null,"vdop":null,"pdop":null,"ageofdgpsdata":null,"dgpsid":null},"geometry":{"type":"Point","coordinates":[8.18763,47.75582]}},{"type":"Feature","properties":{"ele":null,"time":null,"magvar":null,"geoidheight":null,"name":"[DE-78234] Café Rest. Hegaustern","cmt":null,"desc":"Engen, Hegaublick 4","src":null,"link1_href":null,"link1_text":null,"link1_type":null,"link2_href":null,"link2_text":null,"link2_type":null,"sym":null,"type":null,"fix":null,"sat":null,"hdop":null,"vdop":null,"pdop":null,"ageofdgpsdata":null,"dgpsid":null},"geometry":{"type":"Point","coordinates":[8.7265,47.88225]}},{"type":"Feature","properties":{"ele":null,"time":null,"magvar":null,"geoidheight":null,"name":"[DE-78234] Hegaublick [Engen - Stetten]","cmt":null,"desc":null,"src":null,"link1_href":null,"link1_text":null,"link1_type":null,"link2_href":null,"link2_text":null,"link2_type":null,"sym":null,"type":null,"fix":null,"sat":null,"hdop":null,"vdop":null,"pdop":null,"ageofdgpsdata":null,"dgpsid":null},"geometry":{"type":"Point","coordinates":[8.72826,47.88354]}},{"type":"Feature","properties":{"ele":null,"time":null,"magvar":null,"geoidheight":null,"name":"[DE-78120] Hexenlochmühle","cmt":null,"desc":"Hexenloch 13-14 [FURTWANGEN IM SCHWARZWALD]","src":null,"link1_href":null,"link1_text":null,"link1_type":null,"link2_href":null,"link2_text":null,"link2_type":null,"sym":null,"type":null,"fix":null,"sat":null,"hdop":null,"vdop":null,"pdop":null,"ageofdgpsdata":null,"dgpsid":null},"geometry":{"type":"Point","coordinates":[8.14291,48.01163]}},{"type":"Feature","properties":{"ele":null,"time":null,"magvar":null,"geoidheight":null,"name":"[DE-76774] Fähre","cmt":null,"desc":"Cafee; [Leopoldshafen]","src":null,"link1_href":null,"link1_text":null,"link1_type":null,"link2_href":null,"link2_text":null,"link2_type":null,"sym":null,"type":null,"fix":null,"sat":null,"hdop":null,"vdop":null,"pdop":null,"ageofdgpsdata":null,"dgpsid":null},"geometry":{"type":"Point","coordinates":[8.36615,49.11574]}},{"type":"Feature","properties":{"ele":null,"time":null,"magvar":null,"geoidheight":null,"name":"[DE-66773] Cafe Stormwind [Schwalbach - Waldhexe]","cmt":null,"desc":null,"src":null,"link1_href":null,"link1_text":null,"link1_type":null,"link2_href":null,"link2_text":null,"link2_type":null,"sym":null,"type":null,"fix":null,"sat":null,"hdop":null,"vdop":null,"pdop":null,"ageofdgpsdata":null,"dgpsid":null},"geometry":{"type":"Point","coordinates":[6.83497,49.31178]}},{"type":"Feature","properties":{"ele":null,"time":null,"magvar":null,"geoidheight":null,"name":"[DE-67705] Johanniskreuz [TRIPPSTADT]","cmt":null,"desc":null,"src":null,"link1_href":null,"link1_text":null,"link1_type":null,"link2_href":null,"link2_text":null,"link2_type":null,"sym":null,"type":null,"fix":null,"sat":null,"hdop":null,"vdop":null,"pdop":null,"ageofdgpsdata":null,"dgpsid":null},"geometry":{"type":"Point","coordinates":[7.82626,49.33637]}},{"type":"Feature","properties":{"ele":null,"time":null,"magvar":null,"geoidheight":null,"name":"[DE-67705] Cafe Nicklis am Johanniskreuz 3 [Trippstadt]","cmt":null,"desc":null,"src":null,"link1_href":null,"link1_text":null,"link1_type":null,"link2_href":null,"link2_text":null,"link2_type":null,"sym":null,"type":null,"fix":null,"sat":null,"hdop":null,"vdop":null,"pdop":null,"ageofdgpsdata":null,"dgpsid":null},"geometry":{"type":"Point","coordinates":[7.82505,49.33784]}},{"type":"Feature","properties":{"ele":null,"time":null,"magvar":null,"geoidheight":null,"name":"[DE-66663] Roemer Schankstr.2 Biergarten [Merzig]","cmt":null,"desc":null,"src":null,"link1_href":null,"link1_text":null,"link1_type":null,"link2_href":null,"link2_text":null,"link2_type":null,"sym":null,"type":null,"fix":null,"sat":null,"hdop":null,"vdop":null,"pdop":null,"ageofdgpsdata":null,"dgpsid":null},"geometry":{"type":"Point","coordinates":[6.63461,49.43898]}},{"type":"Feature","properties":{"ele":null,"time":null,"magvar":null,"geoidheight":null,"name":"[DE-66822] Bistro Chamälion Kreuzheckerstr.4 [Lebach - Gresaubach]","cmt":null,"desc":null,"src":null,"link1_href":null,"link1_text":null,"link1_type":null,"link2_href":null,"link2_text":null,"link2_type":null,"sym":null,"type":null,"fix":null,"sat":null,"hdop":null,"vdop":null,"pdop":null,"ageofdgpsdata":null,"dgpsid":null},"geometry":{"type":"Point","coordinates":[6.90203,49.45377]}},{"type":"Feature","properties":{"ele":null,"time":null,"magvar":null,"geoidheight":null,"name":"[DE-66706] Alexandras Kneipchen Metzer Str.26 [Perl - Besch]","cmt":null,"desc":null,"src":null,"link1_href":null,"link1_text":null,"link1_type":null,"link2_href":null,"link2_text":null,"link2_type":null,"sym":null,"type":null,"fix":null,"sat":null,"hdop":null,"vdop":null,"pdop":null,"ageofdgpsdata":null,"dgpsid":null},"geometry":{"type":"Point","coordinates":[6.36938,49.50293]}},{"type":"Feature","properties":{"ele":null,"time":null,"magvar":null,"geoidheight":null,"name":"[DE-67685] Thomas Hojnatzki [Eulenbis]","cmt":null,"desc":null,"src":null,"link1_href":null,"link1_text":null,"link1_type":null,"link2_href":null,"link2_text":null,"link2_type":null,"sym":null,"type":null,"fix":null,"sat":null,"hdop":null,"vdop":null,"pdop":null,"ageofdgpsdata":null,"dgpsid":null},"geometry":{"type":"Point","coordinates":[7.63621,49.50775]}},{"type":"Feature","properties":{"ele":null,"time":null,"magvar":null,"geoidheight":null,"name":"[DE-66620] Pilsstube Oasis Buweller Str.4 [Nonnweiler - Kastel]","cmt":null,"desc":null,"src":null,"link1_href":null,"link1_text":null,"link1_type":null,"link2_href":null,"link2_text":null,"link2_type":null,"sym":null,"type":null,"fix":null,"sat":null,"hdop":null,"vdop":null,"pdop":null,"ageofdgpsdata":null,"dgpsid":null},"geometry":{"type":"Point","coordinates":[6.96831,49.56994]}},{"type":"Feature","properties":{"ele":null,"time":null,"magvar":null,"geoidheight":null,"name":"[DE-64678] Zur Linde Nibelungenstr. nahe der B47 [Lindenfels]","cmt":null,"desc":null,"src":null,"link1_href":null,"link1_text":null,"link1_type":null,"link2_href":null,"link2_text":null,"link2_type":null,"sym":null,"type":null,"fix":null,"sat":null,"hdop":null,"vdop":null,"pdop":null,"ageofdgpsdata":null,"dgpsid":null},"geometry":{"type":"Point","coordinates":[8.78026,49.68474]}},{"type":"Feature","properties":{"ele":null,"time":null,"magvar":null,"geoidheight":null,"name":"[DE-64686] Felsenmeer Nibelungenstr. [Lautertal - Marienberg]","cmt":null,"desc":null,"src":null,"link1_href":null,"link1_text":null,"link1_type":null,"link2_href":null,"link2_text":null,"link2_type":null,"sym":null,"type":null,"fix":null,"sat":null,"hdop":null,"vdop":null,"pdop":null,"ageofdgpsdata":null,"dgpsid":null},"geometry":{"type":"Point","coordinates":[8.71601,49.71901]}},{"type":"Feature","properties":{"ele":null,"time":null,"magvar":null,"geoidheight":null,"name":"[DE-67596] Parkplatz am Turmlokal Auf dem Kloppberg [Dittelsheim-Heßloch]","cmt":null,"desc":null,"src":null,"link1_href":null,"link1_text":null,"link1_type":null,"link2_href":null,"link2_text":null,"link2_type":null,"sym":null,"type":null,"fix":null,"sat":null,"hdop":null,"vdop":null,"pdop":null,"ageofdgpsdata":null,"dgpsid":null},"geometry":{"type":"Point","coordinates":[8.24576,49.74127]}},{"type":"Feature","properties":{"ele":null,"time":null,"magvar":null,"geoidheight":null,"name":"[DE-54293] Forsthaus Altenhof Aacher Weg 86 So morgens [Trier - Trier-West]","cmt":null,"desc":null,"src":null,"link1_href":null,"link1_text":null,"link1_type":null,"link2_href":null,"link2_text":null,"link2_type":null,"sym":null,"type":null,"fix":null,"sat":null,"hdop":null,"vdop":null,"pdop":null,"ageofdgpsdata":null,"dgpsid":null},"geometry":{"type":"Point","coordinates":[6.65799,49.78298]}},{"type":"Feature","properties":{"ele":null,"time":null,"magvar":null,"geoidheight":null,"name":"[DE-65468] Motorradtreff Kornsand [Trebur - Kornsand]","cmt":null,"desc":null,"src":null,"link1_href":null,"link1_text":null,"link1_type":null,"link2_href":null,"link2_text":null,"link2_type":null,"sym":null,"type":null,"fix":null,"sat":null,"hdop":null,"vdop":null,"pdop":null,"ageofdgpsdata":null,"dgpsid":null},"geometry":{"type":"Point","coordinates":[8.35505,49.86672]}},{"type":"Feature","properties":{"ele":null,"time":null,"magvar":null,"geoidheight":null,"name":"[DE-54646] Arte die Kulturkneipe Prümtalstr.5 [Bettingen]","cmt":null,"desc":null,"src":null,"link1_href":null,"link1_text":null,"link1_type":null,"link2_href":null,"link2_text":null,"link2_type":null,"sym":null,"type":null,"fix":null,"sat":null,"hdop":null,"vdop":null,"pdop":null,"ageofdgpsdata":null,"dgpsid":null},"geometry":{"type":"Point","coordinates":[6.41114,49.94538]}},{"type":"Feature","properties":{"ele":null,"time":null,"magvar":null,"geoidheight":null,"name":"[DE-65185] Yamaha Klose","cmt":null,"desc":"Karlstr.40-44 [WIESBADEN]","src":null,"link1_href":null,"link1_text":null,"link1_type":null,"link2_href":null,"link2_text":null,"link2_type":null,"sym":null,"type":null,"fix":null,"sat":null,"hdop":null,"vdop":null,"pdop":null,"ageofdgpsdata":null,"dgpsid":null},"geometry":{"type":"Point","coordinates":[8.23558,50.07452]}},{"type":"Feature","properties":{"ele":null,"time":null,"magvar":null,"geoidheight":null,"name":"[DE-65321] Wisperstube [Heidenrod - Geroldstein]","cmt":null,"desc":null,"src":null,"link1_href":null,"link1_text":null,"link1_type":null,"link2_href":null,"link2_text":null,"link2_type":null,"sym":null,"type":null,"fix":null,"sat":null,"hdop":null,"vdop":null,"pdop":null,"ageofdgpsdata":null,"dgpsid":null},"geometry":{"type":"Point","coordinates":[7.9402,50.10823]}},{"type":"Feature","properties":{"ele":null,"time":null,"magvar":null,"geoidheight":null,"name":"[DE-54550] Alte Schmiede Alte Roßgasse 2 Do Ruhetag [Daun - Pützborn]","cmt":null,"desc":null,"src":null,"link1_href":null,"link1_text":null,"link1_type":null,"link2_href":null,"link2_text":null,"link2_type":null,"sym":null,"type":null,"fix":null,"sat":null,"hdop":null,"vdop":null,"pdop":null,"ageofdgpsdata":null,"dgpsid":null},"geometry":{"type":"Point","coordinates":[6.81369,50.19381]}},{"type":"Feature","properties":{"ele":null,"time":null,"magvar":null,"geoidheight":null,"name":"[DE-56332] Bikershouse an der Mosel","cmt":null,"desc":"Bergstraße 1 [Burgen]","src":null,"link1_href":null,"link1_text":null,"link1_type":null,"link2_href":null,"link2_text":null,"link2_type":null,"sym":null,"type":null,"fix":null,"sat":null,"hdop":null,"vdop":null,"pdop":null,"ageofdgpsdata":null,"dgpsid":null},"geometry":{"type":"Point","coordinates":[7.38896,50.21173]}},{"type":"Feature","properties":{"ele":null,"time":null,"magvar":null,"geoidheight":null,"name":"[DE-61462] Applauskurve Feldberg [Königstein - Fuchstanz]","cmt":null,"desc":null,"src":null,"link1_href":null,"link1_text":null,"link1_type":null,"link2_href":null,"link2_text":null,"link2_type":null,"sym":null,"type":null,"fix":null,"sat":null,"hdop":null,"vdop":null,"pdop":null,"ageofdgpsdata":null,"dgpsid":null},"geometry":{"type":"Point","coordinates":[8.47836,50.22613]}},{"type":"Feature","properties":{"ele":null,"time":null,"magvar":null,"geoidheight":null,"name":"[DE-65326] Parkplatz B54 bei Michelbach","cmt":null,"desc":"am WE und feiertags mit mobilem Imbiss [Aarbergen]","src":null,"link1_href":null,"link1_text":null,"link1_type":null,"link2_href":null,"link2_text":null,"link2_type":null,"sym":null,"type":null,"fix":null,"sat":null,"hdop":null,"vdop":null,"pdop":null,"ageofdgpsdata":null,"dgpsid":null},"geometry":{"type":"Point","coordinates":[8.04452,50.22725]}},{"type":"Feature","properties":{"ele":null,"time":null,"magvar":null,"geoidheight":null,"name":"[DE-61389] Großer Feldberg (oben) [Schmitten - Am Feldberg]","cmt":null,"desc":null,"src":null,"link1_href":null,"link1_text":null,"link1_type":null,"link2_href":null,"link2_text":null,"link2_type":null,"sym":null,"type":null,"fix":null,"sat":null,"hdop":null,"vdop":null,"pdop":null,"ageofdgpsdata":null,"dgpsid":null},"geometry":{"type":"Point","coordinates":[8.45785,50.23228]}},{"type":"Feature","properties":{"ele":null,"time":null,"magvar":null,"geoidheight":null,"name":"[DE-56340] Lindenhof B42 Rheinuferstr.9 Bikerfreundlicheshotel [Osterspai]","cmt":null,"desc":null,"src":null,"link1_href":null,"link1_text":null,"link1_type":null,"link2_href":null,"link2_text":null,"link2_type":null,"sym":null,"type":null,"fix":null,"sat":null,"hdop":null,"vdop":null,"pdop":null,"ageofdgpsdata":null,"dgpsid":null},"geometry":{"type":"Point","coordinates":[7.61729,50.24622]}},{"type":"Feature","properties":{"ele":null,"time":null,"magvar":null,"geoidheight":null,"name":"[DE-56332] Moselhotel Burgcafe Moselstr.11 WE [Alken]","cmt":null,"desc":null,"src":null,"link1_href":null,"link1_text":null,"link1_type":null,"link2_href":null,"link2_text":null,"link2_type":null,"sym":null,"type":null,"fix":null,"sat":null,"hdop":null,"vdop":null,"pdop":null,"ageofdgpsdata":null,"dgpsid":null},"geometry":{"type":"Point","coordinates":[7.4465,50.24654]}},{"type":"Feature","properties":{"ele":null,"time":null,"magvar":null,"geoidheight":null,"name":"[DE-54552] Beim Holzschnitzer","cmt":null,"desc":"Dockweilerstraße 1 [Dreis-Brück]","src":null,"link1_href":null,"link1_text":null,"link1_type":null,"link2_href":null,"link2_text":null,"link2_type":null,"sym":null,"type":null,"fix":null,"sat":null,"hdop":null,"vdop":null,"pdop":null,"ageofdgpsdata":null,"dgpsid":null},"geometry":{"type":"Point","coordinates":[6.7919,50.2627]}},{"type":"Feature","properties":{"ele":null,"time":null,"magvar":null,"geoidheight":null,"name":"[DE-61389] Dorfweil [Schmitten - Dorfweil]","cmt":null,"desc":null,"src":null,"link1_href":null,"link1_text":null,"link1_type":null,"link2_href":null,"link2_text":null,"link2_type":null,"sym":null,"type":null,"fix":null,"sat":null,"hdop":null,"vdop":null,"pdop":null,"ageofdgpsdata":null,"dgpsid":null},"geometry":{"type":"Point","coordinates":[8.45645,50.28171]}},{"type":"Feature","properties":{"ele":null,"time":null,"magvar":null,"geoidheight":null,"name":"[DE-53539] Welcherather Einkehr/ Formel M Hauptstr. [Reimerath]","cmt":null,"desc":null,"src":null,"link1_href":null,"link1_text":null,"link1_type":null,"link2_href":null,"link2_text":null,"link2_type":null,"sym":null,"type":null,"fix":null,"sat":null,"hdop":null,"vdop":null,"pdop":null,"ageofdgpsdata":null,"dgpsid":null},"geometry":{"type":"Point","coordinates":[6.96605,50.31968]}},{"type":"Feature","properties":{"ele":null,"time":null,"magvar":null,"geoidheight":null,"name":"[DE-53520] Erlebniswelt am Nürburgring Nürburg 10 17Uhr [Nürburg - Balkhausen]","cmt":null,"desc":null,"src":null,"link1_href":null,"link1_text":null,"link1_type":null,"link2_href":null,"link2_text":null,"link2_type":null,"sym":null,"type":null,"fix":null,"sat":null,"hdop":null,"vdop":null,"pdop":null,"ageofdgpsdata":null,"dgpsid":null},"geometry":{"type":"Point","coordinates":[6.94908,50.33556]}},{"type":"Feature","properties":{"ele":null,"time":null,"magvar":null,"geoidheight":null,"name":"[DE-53520] Nordschleife Nürburgring [Meuspath]","cmt":null,"desc":null,"src":null,"link1_href":null,"link1_text":null,"link1_type":null,"link2_href":null,"link2_text":null,"link2_type":null,"sym":null,"type":null,"fix":null,"sat":null,"hdop":null,"vdop":null,"pdop":null,"ageofdgpsdata":null,"dgpsid":null},"geometry":{"type":"Point","coordinates":[6.97373,50.33823]}},{"type":"Feature","properties":{"ele":null,"time":null,"magvar":null,"geoidheight":null,"name":"[DE-53520] BMW Bikertreff am Nürburgring Gewerbegebiet [Meuspath]","cmt":null,"desc":null,"src":null,"link1_href":null,"link1_text":null,"link1_type":null,"link2_href":null,"link2_text":null,"link2_type":null,"sym":null,"type":null,"fix":null,"sat":null,"hdop":null,"vdop":null,"pdop":null,"ageofdgpsdata":null,"dgpsid":null},"geometry":{"type":"Point","coordinates":[6.97639,50.34896]}},{"type":"Feature","properties":{"ele":null,"time":null,"magvar":null,"geoidheight":null,"name":"[DE-53518] Café zur Nordschleife","cmt":null,"desc":"Trierer Str.11 [Adenau]","src":null,"link1_href":null,"link1_text":null,"link1_type":null,"link2_href":null,"link2_text":null,"link2_type":null,"sym":null,"type":null,"fix":null,"sat":null,"hdop":null,"vdop":null,"pdop":null,"ageofdgpsdata":null,"dgpsid":null},"geometry":{"type":"Point","coordinates":[6.95085,50.37711]}},{"type":"Feature","properties":{"ele":null,"time":null,"magvar":null,"geoidheight":null,"name":"[DE-52066] Bushaltestelle Oldtimertreffpunkt [Aachen - Siegel]","cmt":null,"desc":null,"src":null,"link1_href":null,"link1_text":null,"link1_type":null,"link2_href":null,"link2_text":null,"link2_type":null,"sym":null,"type":null,"fix":null,"sat":null,"hdop":null,"vdop":null,"pdop":null,"ageofdgpsdata":null,"dgpsid":null},"geometry":{"type":"Point","coordinates":[6.09855,50.75156]}},{"type":"Feature","properties":{"ele":null,"time":null,"magvar":null,"geoidheight":null,"name":"[DE-52152] Biker-Ranch Di-Fr 12:00-01:00h Sa So 09:00-01:00h [Simmerath - Strauch]","cmt":null,"desc":null,"src":null,"link1_href":null,"link1_text":null,"link1_type":null,"link2_href":null,"link2_text":null,"link2_type":null,"sym":null,"type":null,"fix":null,"sat":null,"hdop":null,"vdop":null,"pdop":null,"ageofdgpsdata":null,"dgpsid":null},"geometry":{"type":"Point","coordinates":[6.32499,50.62236]}},{"type":"Feature","properties":{"ele":null,"time":null,"magvar":null,"geoidheight":null,"name":"[DE-41179] Ellys Bikertreff","cmt":null,"desc":"Schriefersmühle 25 [Mönchengladbach]","src":null,"link1_href":null,"link1_text":null,"link1_type":null,"link2_href":null,"link2_text":null,"link2_type":null,"sym":null,"type":null,"fix":null,"sat":null,"hdop":null,"vdop":null,"pdop":null,"ageofdgpsdata":null,"dgpsid":null},"geometry":{"type":"Point","coordinates":[6.34072,51.13628]}},{"type":"Feature","properties":{"ele":null,"time":null,"magvar":null,"geoidheight":null,"name":"[DE-52152] Rurberg Täglich 8.00  22.00Uhr [Simmerath - Rurberg]","cmt":null,"desc":null,"src":null,"link1_href":null,"link1_text":null,"link1_type":null,"link2_href":null,"link2_text":null,"link2_type":null,"sym":null,"type":null,"fix":null,"sat":null,"hdop":null,"vdop":null,"pdop":null,"ageofdgpsdata":null,"dgpsid":null},"geometry":{"type":"Point","coordinates":[6.38368,50.60754]}},{"type":"Feature","properties":{"ele":null,"time":null,"magvar":null,"geoidheight":null,"name":"[DE-52152] Rursee Staumauer [Simmerath - Rurberg]","cmt":null,"desc":null,"src":null,"link1_href":null,"link1_text":null,"link1_type":null,"link2_href":null,"link2_text":null,"link2_type":null,"sym":null,"type":null,"fix":null,"sat":null,"hdop":null,"vdop":null,"pdop":null,"ageofdgpsdata":null,"dgpsid":null},"geometry":{"type":"Point","coordinates":[6.38897,50.60732]}},{"type":"Feature","properties":{"ele":null,"time":null,"magvar":null,"geoidheight":null,"name":"[DE-53937] Bikers-Inn Morsbach","cmt":null,"desc":"Einruhrer Strasse 23; Das Bikers-Inn liegt in Morsbach [Morsbach]","src":null,"link1_href":null,"link1_text":null,"link1_type":null,"link2_href":null,"link2_text":null,"link2_type":null,"sym":null,"type":null,"fix":null,"sat":null,"hdop":null,"vdop":null,"pdop":null,"ageofdgpsdata":null,"dgpsid":null},"geometry":{"type":"Point","coordinates":[6.44398,50.56058]}},{"type":"Feature","properties":{"ele":null,"time":null,"magvar":null,"geoidheight":null,"name":"[DE-52396] Gerdas Bikertreff","cmt":null,"desc":"Schwammenauel 4 [Heimbach]","src":null,"link1_href":null,"link1_text":null,"link1_type":null,"link2_href":null,"link2_text":null,"link2_type":null,"sym":null,"type":null,"fix":null,"sat":null,"hdop":null,"vdop":null,"pdop":null,"ageofdgpsdata":null,"dgpsid":null},"geometry":{"type":"Point","coordinates":[6.4451,50.63309]}},{"type":"Feature","properties":{"ele":null,"time":null,"magvar":null,"geoidheight":null,"name":"[DE-52385] Green Mile, Dürener Str. 2","cmt":null,"desc":"52385 Nideggen-Berg                          Motel und  Biergarten                           (Biergarten  Fr, Sa, So geoeffnet) www.green-mile.eu;; Duerener Str 2 [Nideggen]","src":null,"link1_href":null,"link1_text":null,"link1_type":null,"link2_href":null,"link2_text":null,"link2_type":null,"sym":null,"type":null,"fix":null,"sat":null,"hdop":null,"vdop":null,"pdop":null,"ageofdgpsdata":null,"dgpsid":null},"geometry":{"type":"Point","coordinates":[6.52264,50.68157]}},{"type":"Feature","properties":{"ele":null,"time":null,"magvar":null,"geoidheight":null,"name":"[DE-41569] Lichters Oldiethek Landstr.31 Horst ist Fernsehkoch WDR [Rommerskirchen - Nettesheim]","cmt":null,"desc":null,"src":null,"link1_href":null,"link1_text":null,"link1_type":null,"link2_href":null,"link2_text":null,"link2_type":null,"sym":null,"type":null,"fix":null,"sat":null,"hdop":null,"vdop":null,"pdop":null,"ageofdgpsdata":null,"dgpsid":null},"geometry":{"type":"Point","coordinates":[6.71144,51.04689]}},{"type":"Feature","properties":{"ele":null,"time":null,"magvar":null,"geoidheight":null,"name":"[DE-53520] Haus Waldfrieden Münstereiflerstr.1 [Schuld]","cmt":null,"desc":null,"src":null,"link1_href":null,"link1_text":null,"link1_type":null,"link2_href":null,"link2_text":null,"link2_type":null,"sym":null,"type":null,"fix":null,"sat":null,"hdop":null,"vdop":null,"pdop":null,"ageofdgpsdata":null,"dgpsid":null},"geometry":{"type":"Point","coordinates":[6.88921,50.44714]}},{"type":"Feature","properties":{"ele":null,"time":null,"magvar":null,"geoidheight":null,"name":"[DE-53359] Bikercafe Zu den 4 Winden","cmt":null,"desc":"Kurtenberg 2 [Rheinbach]","src":null,"link1_href":null,"link1_text":null,"link1_type":null,"link2_href":null,"link2_text":null,"link2_type":null,"sym":null,"type":null,"fix":null,"sat":null,"hdop":null,"vdop":null,"pdop":null,"ageofdgpsdata":null,"dgpsid":null},"geometry":{"type":"Point","coordinates":[6.91685,50.58019]}},{"type":"Feature","properties":{"ele":null,"time":null,"magvar":null,"geoidheight":null,"name":"[DE-51379] 42799 Leichlingen","cmt":null,"desc":"Am Förstchens Busch 2 ; Italo Treff","src":null,"link1_href":null,"link1_text":null,"link1_type":null,"link2_href":null,"link2_text":null,"link2_type":null,"sym":null,"type":null,"fix":null,"sat":null,"hdop":null,"vdop":null,"pdop":null,"ageofdgpsdata":null,"dgpsid":null},"geometry":{"type":"Point","coordinates":[6.99407,51.09467]}},{"type":"Feature","properties":{"ele":null,"time":null,"magvar":null,"geoidheight":null,"name":"[DE-51399] Oldtimertreff","cmt":null,"desc":"Bahnhofstraße 1 [Burscheid]","src":null,"link1_href":null,"link1_text":null,"link1_type":null,"link2_href":null,"link2_text":null,"link2_type":null,"sym":null,"type":null,"fix":null,"sat":null,"hdop":null,"vdop":null,"pdop":null,"ageofdgpsdata":null,"dgpsid":null},"geometry":{"type":"Point","coordinates":[7.15852,51.10364]}},{"type":"Feature","properties":{"ele":null,"time":null,"magvar":null,"geoidheight":null,"name":"[DE-53797] Gasthaus Flohberg Pützrather Weg 1 [Lohmar - Donrath]","cmt":null,"desc":null,"src":null,"link1_href":null,"link1_text":null,"link1_type":null,"link2_href":null,"link2_text":null,"link2_type":null,"sym":null,"type":null,"fix":null,"sat":null,"hdop":null,"vdop":null,"pdop":null,"ageofdgpsdata":null,"dgpsid":null},"geometry":{"type":"Point","coordinates":[7.21798,50.85565]}},{"type":"Feature","properties":{"ele":null,"time":null,"magvar":null,"geoidheight":null,"name":"[DE-42929] Cafe Schneider Kreckersweg 1a [Wermelskirchen - Wöllersberg]","cmt":null,"desc":null,"src":null,"link1_href":null,"link1_text":null,"link1_type":null,"link2_href":null,"link2_text":null,"link2_type":null,"sym":null,"type":null,"fix":null,"sat":null,"hdop":null,"vdop":null,"pdop":null,"ageofdgpsdata":null,"dgpsid":null},"geometry":{"type":"Point","coordinates":[7.22515,51.10759]}},{"type":"Feature","properties":{"ele":null,"time":null,"magvar":null,"geoidheight":null,"name":"[DE-51515] Landhaus Fuchs Unterbersten [Kürten - Unterbersten]","cmt":null,"desc":null,"src":null,"link1_href":null,"link1_text":null,"link1_type":null,"link2_href":null,"link2_text":null,"link2_type":null,"sym":null,"type":null,"fix":null,"sat":null,"hdop":null,"vdop":null,"pdop":null,"ageofdgpsdata":null,"dgpsid":null},"geometry":{"type":"Point","coordinates":[7.30764,51.03073]}},{"type":"Feature","properties":{"ele":null,"time":null,"magvar":null,"geoidheight":null,"name":"[DE-51688] 51688 Wipperfürth","cmt":null,"desc":"Ahe 7;Landhaus Orbach","src":null,"link1_href":null,"link1_text":null,"link1_type":null,"link2_href":null,"link2_text":null,"link2_type":null,"sym":null,"type":null,"fix":null,"sat":null,"hdop":null,"vdop":null,"pdop":null,"ageofdgpsdata":null,"dgpsid":null},"geometry":{"type":"Point","coordinates":[7.36386,51.08076]}},{"type":"Feature","properties":{"ele":null,"time":null,"magvar":null,"geoidheight":null,"name":"[DE-56637] Geromont Römerstr.3a Ausflugslokal mit Hotel [Plaidt]","cmt":null,"desc":null,"src":null,"link1_href":null,"link1_text":null,"link1_type":null,"link2_href":null,"link2_text":null,"link2_type":null,"sym":null,"type":null,"fix":null,"sat":null,"hdop":null,"vdop":null,"pdop":null,"ageofdgpsdata":null,"dgpsid":null},"geometry":{"type":"Point","coordinates":[7.38968,50.395]}},{"type":"Feature","properties":{"ele":null,"time":null,"magvar":null,"geoidheight":null,"name":"[DE-53577] Nescher Mühle [Neustadt - Hohnsberg]","cmt":null,"desc":null,"src":null,"link1_href":null,"link1_text":null,"link1_type":null,"link2_href":null,"link2_text":null,"link2_type":null,"sym":null,"type":null,"fix":null,"sat":null,"hdop":null,"vdop":null,"pdop":null,"ageofdgpsdata":null,"dgpsid":null},"geometry":{"type":"Point","coordinates":[7.42718,50.59002]}},
{"type":"Feature","properties":{"ele":null,"time":null,"magvar":null,"geoidheight":null,"name":"[DE-53809] Futterkrippe Rathausstr.17 Ruppichteroth Schönenberg [Ruppichteroth - Schönenberg]","cmt":null,"desc":null,"src":null,"link1_href":null,"link1_text":null,"link1_type":null,"link2_href":null,"link2_text":null,"link2_type":null,"sym":null,"type":null,"fix":null,"sat":null,"hdop":null,"vdop":null,"pdop":null,"ageofdgpsdata":null,"dgpsid":null},"geometry":{"type":"Point","coordinates":[7.43822,50.83846]}},
{"type":"Feature","properties":{"ele":null,"time":null,"magvar":null,"geoidheight":null,"name":"[DE-53804] Café Alte Schule","cmt":null,"desc":"Niederbonrath 70 [Much]","src":null,"link1_href":null,"link1_text":null,"link1_type":null,"link2_href":null,"link2_text":null,"link2_type":null,"sym":null,"type":null,"fix":null,"sat":null,"hdop":null,"vdop":null,"pdop":null,"ageofdgpsdata":null,"dgpsid":null},"geometry":{"type":"Point","coordinates":[7.45715,50.91173]}},
{"type":"Feature","properties":{"ele":null,"time":null,"magvar":null,"geoidheight":null,"name":"[DE-57632] Bikers Canyon","cmt":null,"desc":"Hauptstraße 8 [Seifen]","src":null,"link1_href":null,"link1_text":null,"link1_type":null,"link2_href":null,"link2_text":null,"link2_type":null,"sym":null,"type":null,"fix":null,"sat":null,"hdop":null,"vdop":null,"pdop":null,"ageofdgpsdata":null,"dgpsid":null},"geometry":{"type":"Point","coordinates":[7.55976,50.62847]}},{"type":"Feature","properties":{"ele":null,"time":null,"magvar":null,"geoidheight":null,"name":"[DE-51570] Bikertreff Burg Caffee [Windeck - Übersetzig]","cmt":null,"desc":null,"src":null,"link1_href":null,"link1_text":null,"link1_type":null,"link2_href":null,"link2_text":null,"link2_type":null,"sym":null,"type":null,"fix":null,"sat":null,"hdop":null,"vdop":null,"pdop":null,"ageofdgpsdata":null,"dgpsid":null},"geometry":{"type":"Point","coordinates":[7.56015,50.80328]}},{"type":"Feature","properties":{"ele":null,"time":null,"magvar":null,"geoidheight":null,"name":"[DE-56271] Zur Isenburg Hauptstr.13 WE [Isenburg]","cmt":null,"desc":null,"src":null,"link1_href":null,"link1_text":null,"link1_type":null,"link2_href":null,"link2_text":null,"link2_type":null,"sym":null,"type":null,"fix":null,"sat":null,"hdop":null,"vdop":null,"pdop":null,"ageofdgpsdata":null,"dgpsid":null},"geometry":{"type":"Point","coordinates":[7.59024,50.47508]}},{"type":"Feature","properties":{"ele":null,"time":null,"magvar":null,"geoidheight":null,"name":"[DE-51709] Turm Unnenberg 507m","cmt":null,"desc":"Unnenbergerstrasse 100 [Marienheide]","src":null,"link1_href":null,"link1_text":null,"link1_type":null,"link2_href":null,"link2_text":null,"link2_type":null,"sym":null,"type":null,"fix":null,"sat":null,"hdop":null,"vdop":null,"pdop":null,"ageofdgpsdata":null,"dgpsid":null},"geometry":{"type":"Point","coordinates":[7.61119,51.06453]}},{"type":"Feature","properties":{"ele":null,"time":null,"magvar":null,"geoidheight":null,"name":"[DE-51647] Alt Aggersee Derschlagerstr. [Gummersbach - Lantenbach]","cmt":null,"desc":null,"src":null,"link1_href":null,"link1_text":null,"link1_type":null,"link2_href":null,"link2_text":null,"link2_type":null,"sym":null,"type":null,"fix":null,"sat":null,"hdop":null,"vdop":null,"pdop":null,"ageofdgpsdata":null,"dgpsid":null},"geometry":{"type":"Point","coordinates":[7.62702,51.05299]}},{"type":"Feature","properties":{"ele":null,"time":null,"magvar":null,"geoidheight":null,"name":"[DE-57439] Motorradtreff Biggesee [Attendorn - Wamge]","cmt":null,"desc":null,"src":null,"link1_href":null,"link1_text":null,"link1_type":null,"link2_href":null,"link2_text":null,"link2_type":null,"sym":null,"type":null,"fix":null,"sat":null,"hdop":null,"vdop":null,"pdop":null,"ageofdgpsdata":null,"dgpsid":null},"geometry":{"type":"Point","coordinates":[7.85299,51.08621]}},{"type":"Feature","properties":{"ele":null,"time":null,"magvar":null,"geoidheight":null,"name":"[DE-57548] Bikers Inn im alten Bahnhof [Kirchen]","cmt":null,"desc":null,"src":null,"link1_href":null,"link1_text":null,"link1_type":null,"link2_href":null,"link2_text":null,"link2_type":null,"sym":null,"type":null,"fix":null,"sat":null,"hdop":null,"vdop":null,"pdop":null,"ageofdgpsdata":null,"dgpsid":null},"geometry":{"type":"Point","coordinates":[7.85652,50.82083]}},{"type":"Feature","properties":{"ele":null,"time":null,"magvar":null,"geoidheight":null,"name":"[DE-57250] Lützeltreff [57271 Hilchenbach, zwischen Afholderbach und Lützeln an der B62] - JPR 04'2016","cmt":null,"desc":null,"src":null,"link1_href":null,"link1_text":null,"link1_type":null,"link2_href":null,"link2_text":null,"link2_type":null,"sym":null,"type":null,"fix":null,"sat":null,"hdop":null,"vdop":null,"pdop":null,"ageofdgpsdata":null,"dgpsid":null},"geometry":{"type":"Point","coordinates":[8.14479,50.95075]}},{"type":"Feature","properties":{"ele":null,"time":null,"magvar":null,"geoidheight":null,"name":"[DE-57399] Rhein - Weser - Turm","cmt":null,"desc":"Rhein-Weser-Turm 1 [Kirchhundem]","src":null,"link1_href":null,"link1_text":null,"link1_type":null,"link2_href":null,"link2_text":null,"link2_type":null,"sym":null,"type":null,"fix":null,"sat":null,"hdop":null,"vdop":null,"pdop":null,"ageofdgpsdata":null,"dgpsid":null},"geometry":{"type":"Point","coordinates":[8.19746,51.07193]}},{"type":"Feature","properties":{"ele":null,"time":null,"magvar":null,"geoidheight":null,"name":"[DE-35649] Aartalgrill am See [L3053, 35649 Bischoffen] - JPR 04'2016","cmt":null,"desc":null,"src":null,"link1_href":null,"link1_text":null,"link1_type":null,"link2_href":null,"link2_text":null,"link2_type":null,"sym":null,"type":null,"fix":null,"sat":null,"hdop":null,"vdop":null,"pdop":null,"ageofdgpsdata":null,"dgpsid":null},"geometry":{"type":"Point","coordinates":[8.48018,50.6971]}},{"type":"Feature","properties":{"ele":null,"time":null,"magvar":null,"geoidheight":null,"name":"[DE-35578] Hofgut Magdalenenhäuser [Wetzlar - Magdalenenhausen]","cmt":null,"desc":null,"src":null,"link1_href":null,"link1_text":null,"link1_type":null,"link2_href":null,"link2_text":null,"link2_type":null,"sym":null,"type":null,"fix":null,"sat":null,"hdop":null,"vdop":null,"pdop":null,"ageofdgpsdata":null,"dgpsid":null},"geometry":{"type":"Point","coordinates":[8.483,50.54271]}},{"type":"Feature","properties":{"ele":null,"time":null,"magvar":null,"geoidheight":null,"name":"[DE-41334] Zum Kolbenklemmer","cmt":null,"desc":"Bürdestr. 22 [Nettetal]","src":null,"link1_href":null,"link1_text":null,"link1_type":null,"link2_href":null,"link2_text":null,"link2_type":null,"sym":null,"type":null,"fix":null,"sat":null,"hdop":null,"vdop":null,"pdop":null,"ageofdgpsdata":null,"dgpsid":null},"geometry":{"type":"Point","coordinates":[6.17786,51.31986]}},{"type":"Feature","properties":{"ele":null,"time":null,"magvar":null,"geoidheight":null,"name":"[DE-41379] Cafe Brösel","cmt":null,"desc":"Bornerstr. 74 [Brüggen]","src":null,"link1_href":null,"link1_text":null,"link1_type":null,"link2_href":null,"link2_text":null,"link2_type":null,"sym":null,"type":null,"fix":null,"sat":null,"hdop":null,"vdop":null,"pdop":null,"ageofdgpsdata":null,"dgpsid":null},"geometry":{"type":"Point","coordinates":[6.19445,51.24485]}},{"type":"Feature","properties":{"ele":null,"time":null,"magvar":null,"geoidheight":null,"name":"[DE-41061] Treffpunkt am Alten Markt","cmt":null,"desc":"Alter Makt [Mönchengladbach - Stadtmitte]","src":null,"link1_href":null,"link1_text":null,"link1_type":null,"link2_href":null,"link2_text":null,"link2_type":null,"sym":null,"type":null,"fix":null,"sat":null,"hdop":null,"vdop":null,"pdop":null,"ageofdgpsdata":null,"dgpsid":null},"geometry":{"type":"Point","coordinates":[6.4313,51.19474]}},{"type":"Feature","properties":{"ele":null,"time":null,"magvar":null,"geoidheight":null,"name":"[DE-46509] Plaza del Mare Xantener Südsee","cmt":null,"desc":"Salmstraße 28 [Xanten]","src":null,"link1_href":null,"link1_text":null,"link1_type":null,"link2_href":null,"link2_text":null,"link2_type":null,"sym":null,"type":null,"fix":null,"sat":null,"hdop":null,"vdop":null,"pdop":null,"ageofdgpsdata":null,"dgpsid":null},"geometry":{"type":"Point","coordinates":[6.45725,51.67073]}},{"type":"Feature","properties":{"ele":null,"time":null,"magvar":null,"geoidheight":null,"name":"[DE-46509] Zur Rheinfähre","cmt":null,"desc":"Terasse mit Aussicht; Bislicher Insel 1 [Xanten - Beek]","src":null,"link1_href":null,"link1_text":null,"link1_type":null,"link2_href":null,"link2_text":null,"link2_type":null,"sym":null,"type":null,"fix":null,"sat":null,"hdop":null,"vdop":null,"pdop":null,"ageofdgpsdata":null,"dgpsid":null},"geometry":{"type":"Point","coordinates":[6.48122,51.66431]}},{"type":"Feature","properties":{"ele":null,"time":null,"magvar":null,"geoidheight":null,"name":"[DE-47877] Hofbräu im Märchenwald","cmt":null,"desc":"Tägl. 11 1Uhr; Im Eschert 1 [Willich - Niederheide]","src":null,"link1_href":null,"link1_text":null,"link1_type":null,"link2_href":null,"link2_text":null,"link2_type":null,"sym":null,"type":null,"fix":null,"sat":null,"hdop":null,"vdop":null,"pdop":null,"ageofdgpsdata":null,"dgpsid":null},"geometry":{"type":"Point","coordinates":[6.5169,51.23301]}},{"type":"Feature","properties":{"ele":null,"time":null,"magvar":null,"geoidheight":null,"name":"[DE-47803] Mo`s Bikertreff","cmt":null,"desc":"Kleineweferstr. 160 [Krefeld - Lemmenhöfe]","src":null,"link1_href":null,"link1_text":null,"link1_type":null,"link2_href":null,"link2_text":null,"link2_type":null,"sym":null,"type":null,"fix":null,"sat":null,"hdop":null,"vdop":null,"pdop":null,"ageofdgpsdata":null,"dgpsid":null},"geometry":{"type":"Point","coordinates":[6.54061,51.34166]}},{"type":"Feature","properties":{"ele":null,"time":null,"magvar":null,"geoidheight":null,"name":"[DE-47441] Bikertreff Beans","cmt":null,"desc":"Zum Schürmannsgraben 12A [Moers]","src":null,"link1_href":null,"link1_text":null,"link1_type":null,"link2_href":null,"link2_text":null,"link2_type":null,"sym":null,"type":null,"fix":null,"sat":null,"hdop":null,"vdop":null,"pdop":null,"ageofdgpsdata":null,"dgpsid":null},"geometry":{"type":"Point","coordinates":[6.61447,51.45807]}},{"type":"Feature","properties":{"ele":null,"time":null,"magvar":null,"geoidheight":null,"name":"[DE-46562] Götterswickerhamm","cmt":null,"desc":"Dammstraße 69 [Voerde (Niederrhein)]","src":null,"link1_href":null,"link1_text":null,"link1_type":null,"link2_href":null,"link2_text":null,"link2_type":null,"sym":null,"type":null,"fix":null,"sat":null,"hdop":null,"vdop":null,"pdop":null,"ageofdgpsdata":null,"dgpsid":null},"geometry":{"type":"Point","coordinates":[6.66581,51.57963]}},{"type":"Feature","properties":{"ele":null,"time":null,"magvar":null,"geoidheight":null,"name":"[DE-40210] Eckkneipe Blende","cmt":null,"desc":"Fridrichstr. 122 [Düsseldorf]","src":null,"link1_href":null,"link1_text":null,"link1_type":null,"link2_href":null,"link2_text":null,"link2_type":null,"sym":null,"type":null,"fix":null,"sat":null,"hdop":null,"vdop":null,"pdop":null,"ageofdgpsdata":null,"dgpsid":null},"geometry":{"type":"Point","coordinates":[6.77682,51.21092]}},{"type":"Feature","properties":{"ele":null,"time":null,"magvar":null,"geoidheight":null,"name":"[DE-47058] Kaiserberg [Duisburg] Kulttreff auf dem ZOO-Parkplatz","cmt":null,"desc":"Carl-Benz-Str. [Duisburg]","src":null,"link1_href":null,"link1_text":null,"link1_type":null,"link2_href":null,"link2_text":null,"link2_type":null,"sym":null,"type":null,"fix":null,"sat":null,"hdop":null,"vdop":null,"pdop":null,"ageofdgpsdata":null,"dgpsid":null},"geometry":{"type":"Point","coordinates":[6.80896,51.43964]}},{"type":"Feature","properties":{"ele":null,"time":null,"magvar":null,"geoidheight":null,"name":"[DE-46244] Grafenmühle","cmt":null,"desc":"Alter Postweg 120 [Bottrop]","src":null,"link1_href":null,"link1_text":null,"link1_type":null,"link2_href":null,"link2_text":null,"link2_type":null,"sym":null,"type":null,"fix":null,"sat":null,"hdop":null,"vdop":null,"pdop":null,"ageofdgpsdata":null,"dgpsid":null},"geometry":{"type":"Point","coordinates":[6.87359,51.5664]}},{"type":"Feature","properties":{"ele":null,"time":null,"magvar":null,"geoidheight":null,"name":"[DE-45899] Motorrad-Museum","cmt":null,"desc":"jed. 2. So. im Monat; Wallstr. 52 [Gelsenkirchen]","src":null,"link1_href":null,"link1_text":null,"link1_type":null,"link2_href":null,"link2_text":null,"link2_type":null,"sym":null,"type":null,"fix":null,"sat":null,"hdop":null,"vdop":null,"pdop":null,"ageofdgpsdata":null,"dgpsid":null},"geometry":{"type":"Point","coordinates":[7.03861,51.5251]}},{"type":"Feature","properties":{"ele":null,"time":null,"magvar":null,"geoidheight":null,"name":"[DE-45239] Haus Scheppen","cmt":null,"desc":"Hardenbergufer 384 [Essen]","src":null,"link1_href":null,"link1_text":null,"link1_type":null,"link2_href":null,"link2_text":null,"link2_type":null,"sym":null,"type":null,"fix":null,"sat":null,"hdop":null,"vdop":null,"pdop":null,"ageofdgpsdata":null,"dgpsid":null},"geometry":{"type":"Point","coordinates":[7.04788,51.39827]}},{"type":"Feature","properties":{"ele":null,"time":null,"magvar":null,"geoidheight":null,"name":"[DE-42551] Haus Hubertushöhe Rodberger Str.132 Biergarten 19 1Uhr [Velbert - Hefel]","cmt":null,"desc":null,"src":null,"link1_href":null,"link1_text":null,"link1_type":null,"link2_href":null,"link2_text":null,"link2_type":null,"sym":null,"type":null,"fix":null,"sat":null,"hdop":null,"vdop":null,"pdop":null,"ageofdgpsdata":null,"dgpsid":null},"geometry":{"type":"Point","coordinates":[7.06218,51.36682]}},{"type":"Feature","properties":{"ele":null,"time":null,"magvar":null,"geoidheight":null,"name":"[DE-42651] Cafe Hubraum","cmt":null,"desc":"Kohlfurther Str.30-32; Eine Institution [Solingen - Schrodtberg]","src":null,"link1_href":null,"link1_text":null,"link1_type":null,"link2_href":null,"link2_text":null,"link2_type":null,"sym":null,"type":null,"fix":null,"sat":null,"hdop":null,"vdop":null,"pdop":null,"ageofdgpsdata":null,"dgpsid":null},"geometry":{"type":"Point","coordinates":[7.11028,51.19]}},{"type":"Feature","properties":{"ele":null,"time":null,"magvar":null,"geoidheight":null,"name":"[DE-45529] Bergerhof Hattingen [Hattingen - Oberporbeck]","cmt":null,"desc":null,"src":null,"link1_href":null,"link1_text":null,"link1_type":null,"link2_href":null,"link2_text":null,"link2_type":null,"sym":null,"type":null,"fix":null,"sat":null,"hdop":null,"vdop":null,"pdop":null,"ageofdgpsdata":null,"dgpsid":null},"geometry":{"type":"Point","coordinates":[7.19398,51.34516]}},{"type":"Feature","properties":{"ele":null,"time":null,"magvar":null,"geoidheight":null,"name":"[DE-42279] Road Stop","cmt":null,"desc":"Einern 141; [Wuppertal]","src":null,"link1_href":null,"link1_text":null,"link1_type":null,"link2_href":null,"link2_text":null,"link2_type":null,"sym":null,"type":null,"fix":null,"sat":null,"hdop":null,"vdop":null,"pdop":null,"ageofdgpsdata":null,"dgpsid":null},"geometry":{"type":"Point","coordinates":[7.21507,51.30274]}},{"type":"Feature","properties":{"ele":null,"time":null,"magvar":null,"geoidheight":null,"name":"[DE-42499] zornige ameise [Hückeswagen - Neuenherweg]","cmt":null,"desc":null,"src":null,"link1_href":null,"link1_text":null,"link1_type":null,"link2_href":null,"link2_text":null,"link2_type":null,"sym":null,"type":null,"fix":null,"sat":null,"hdop":null,"vdop":null,"pdop":null,"ageofdgpsdata":null,"dgpsid":null},"geometry":{"type":"Point","coordinates":[7.3636,51.14547]}},{"type":"Feature","properties":{"ele":null,"time":null,"magvar":null,"geoidheight":null,"name":"[DE-58099] Hohensyburg die Mutter aller Treffpunkte So am P. Hengsteysee [Hagen - Bathey]","cmt":null,"desc":null,"src":null,"link1_href":null,"link1_text":null,"link1_type":null,"link2_href":null,"link2_text":null,"link2_type":null,"sym":null,"type":null,"fix":null,"sat":null,"hdop":null,"vdop":null,"pdop":null,"ageofdgpsdata":null,"dgpsid":null},"geometry":{"type":"Point","coordinates":[7.47793,51.41493]}},{"type":"Feature","properties":{"ele":null,"time":null,"magvar":null,"geoidheight":null,"name":"[DE-44227] Road Stop oberhalb der Serpentien [Dortmund - Syburg]","cmt":null,"desc":null,"src":null,"link1_href":null,"link1_text":null,"link1_type":null,"link2_href":null,"link2_text":null,"link2_type":null,"sym":null,"type":null,"fix":null,"sat":null,"hdop":null,"vdop":null,"pdop":null,"ageofdgpsdata":null,"dgpsid":null},"geometry":{"type":"Point","coordinates":[7.48422,51.42552]}},{"type":"Feature","properties":{"ele":null,"time":null,"magvar":null,"geoidheight":null,"name":"[DE-58579] Glörtalsperre K7 Parkplatz an der Talsperre Cafes [Schalksmühle - Im Dahl]","cmt":null,"desc":null,"src":null,"link1_href":null,"link1_text":null,"link1_type":null,"link2_href":null,"link2_text":null,"link2_type":null,"sym":null,"type":null,"fix":null,"sat":null,"hdop":null,"vdop":null,"pdop":null,"ageofdgpsdata":null,"dgpsid":null},"geometry":{"type":"Point","coordinates":[7.50016,51.24335]}},{"type":"Feature","properties":{"ele":null,"time":null,"magvar":null,"geoidheight":null,"name":"[DE-58579] Mesekendahl","cmt":null,"desc":"Wildgehege Mesekendahl; Wildgehege und Bikertreff [Lüdenscheid]","src":null,"link1_href":null,"link1_text":null,"link1_type":null,"link2_href":null,"link2_text":null,"link2_type":null,"sym":null,"type":null,"fix":null,"sat":null,"hdop":null,"vdop":null,"pdop":null,"ageofdgpsdata":null,"dgpsid":null},"geometry":{"type":"Point","coordinates":[7.61178,51.27492]}},{"type":"Feature","properties":{"ele":null,"time":null,"magvar":null,"geoidheight":null,"name":"[DE-59423] Bikertreff","cmt":null,"desc":"Unnaer Str. [Unna]","src":null,"link1_href":null,"link1_text":null,"link1_type":null,"link2_href":null,"link2_text":null,"link2_type":null,"sym":null,"type":null,"fix":null,"sat":null,"hdop":null,"vdop":null,"pdop":null,"ageofdgpsdata":null,"dgpsid":null},"geometry":{"type":"Point","coordinates":[7.70385,51.49973]}},{"type":"Feature","properties":{"ele":null,"time":null,"magvar":null,"geoidheight":null,"name":"[DE-59071] Brauhaus Wilshof, 59071 Hamm, Baumstrasse 34","cmt":null,"desc":null,"src":null,"link1_href":null,"link1_text":null,"link1_type":null,"link2_href":null,"link2_text":null,"link2_type":null,"sym":null,"type":null,"fix":null,"sat":null,"hdop":null,"vdop":null,"pdop":null,"ageofdgpsdata":null,"dgpsid":null},"geometry":{"type":"Point","coordinates":[7.90255,51.67054]}},{"type":"Feature","properties":{"ele":null,"time":null,"magvar":null,"geoidheight":null,"name":"[DE-59846] Sorpesee Kiosk zur kleinen Rast [Sundern - Langscheid]","cmt":null,"desc":null,"src":null,"link1_href":null,"link1_text":null,"link1_type":null,"link2_href":null,"link2_text":null,"link2_type":null,"sym":null,"type":null,"fix":null,"sat":null,"hdop":null,"vdop":null,"pdop":null,"ageofdgpsdata":null,"dgpsid":null},"geometry":{"type":"Point","coordinates":[7.95519,51.3479]}},{"type":"Feature","properties":{"ele":null,"time":null,"magvar":null,"geoidheight":null,"name":"[DE-59846] Motorradtreff Sorpesee [Sundern]","cmt":null,"desc":null,"src":null,"link1_href":null,"link1_text":null,"link1_type":null,"link2_href":null,"link2_text":null,"link2_type":null,"sym":null,"type":null,"fix":null,"sat":null,"hdop":null,"vdop":null,"pdop":null,"ageofdgpsdata":null,"dgpsid":null},"geometry":{"type":"Point","coordinates":[7.95645,51.35069]}},{"type":"Feature","properties":{"ele":null,"time":null,"magvar":null,"geoidheight":null,"name":"[DE-59519] Möhnetalsperre [Möhnesee]","cmt":null,"desc":null,"src":null,"link1_href":null,"link1_text":null,"link1_type":null,"link2_href":null,"link2_text":null,"link2_type":null,"sym":null,"type":null,"fix":null,"sat":null,"hdop":null,"vdop":null,"pdop":null,"ageofdgpsdata":null,"dgpsid":null},"geometry":{"type":"Point","coordinates":[8.06167,51.49139]}},{"type":"Feature","properties":{"ele":null,"time":null,"magvar":null,"geoidheight":null,"name":"[DE-59519] Wolfs Revier [Möhnesee - Brünningsen]","cmt":null,"desc":null,"src":null,"link1_href":null,"link1_text":null,"link1_type":null,"link2_href":null,"link2_text":null,"link2_type":null,"sym":null,"type":null,"fix":null,"sat":null,"hdop":null,"vdop":null,"pdop":null,"ageofdgpsdata":null,"dgpsid":null},"geometry":{"type":"Point","coordinates":[8.06192,51.49191]}},{"type":"Feature","properties":{"ele":null,"time":null,"magvar":null,"geoidheight":null,"name":"[DE-59519] Geronimo lodge [Möhnesee - Neuhaus]","cmt":null,"desc":null,"src":null,"link1_href":null,"link1_text":null,"link1_type":null,"link2_href":null,"link2_text":null,"link2_type":null,"sym":null,"type":null,"fix":null,"sat":null,"hdop":null,"vdop":null,"pdop":null,"ageofdgpsdata":null,"dgpsid":null},"geometry":{"type":"Point","coordinates":[8.08971,51.4904]}},{"type":"Feature","properties":{"ele":null,"time":null,"magvar":null,"geoidheight":null,"name":"[DE-59519] Bikers In am Möhnesee","cmt":null,"desc":"Seeuferstraße 25 [Möhnesee]","src":null,"link1_href":null,"link1_text":null,"link1_type":null,"link2_href":null,"link2_text":null,"link2_type":null,"sym":null,"type":null,"fix":null,"sat":null,"hdop":null,"vdop":null,"pdop":null,"ageofdgpsdata":null,"dgpsid":null},"geometry":{"type":"Point","coordinates":[8.16349,51.49175]}},{"type":"Feature","properties":{"ele":null,"time":null,"magvar":null,"geoidheight":null,"name":"[DE-59955] Big Mountain","cmt":null,"desc":"Schneilstraße 2; Winterberg","src":null,"link1_href":null,"link1_text":null,"link1_type":null,"link2_href":null,"link2_text":null,"link2_type":null,"sym":null,"type":null,"fix":null,"sat":null,"hdop":null,"vdop":null,"pdop":null,"ageofdgpsdata":null,"dgpsid":null},"geometry":{"type":"Point","coordinates":[8.51269,51.18919]}},{"type":"Feature","properties":{"ele":null,"time":null,"magvar":null,"geoidheight":null,"name":"[DE-59955] Bikers Herrloh  Am Waltenberg 67a","cmt":null,"desc":null,"src":null,"link1_href":null,"link1_text":null,"link1_type":null,"link2_href":null,"link2_text":null,"link2_type":null,"sym":null,"type":null,"fix":null,"sat":null,"hdop":null,"vdop":null,"pdop":null,"ageofdgpsdata":null,"dgpsid":null},"geometry":{"type":"Point","coordinates":[8.51923,51.19224]}},{"type":"Feature","properties":{"ele":null,"time":null,"magvar":null,"geoidheight":null,"name":"[DE-59929] Altenbürener Mühle Tel. 02961 2100 [Brilon - Scharfenberg]","cmt":null,"desc":null,"src":null,"link1_href":null,"link1_text":null,"link1_type":null,"link2_href":null,"link2_text":null,"link2_type":null,"sym":null,"type":null,"fix":null,"sat":null,"hdop":null,"vdop":null,"pdop":null,"ageofdgpsdata":null,"dgpsid":null},"geometry":{"type":"Point","coordinates":[8.53175,51.40328]}},{"type":"Feature","properties":{"ele":null,"time":null,"magvar":null,"geoidheight":null,"name":"[DE-59929] Berggasthof Kemper Plattenberg 2 [Brilon - Messinghausen]","cmt":null,"desc":null,"src":null,"link1_href":null,"link1_text":null,"link1_type":null,"link2_href":null,"link2_text":null,"link2_type":null,"sym":null,"type":null,"fix":null,"sat":null,"hdop":null,"vdop":null,"pdop":null,"ageofdgpsdata":null,"dgpsid":null},"geometry":{"type":"Point","coordinates":[8.65473,51.3915]}},{"type":"Feature","properties":{"ele":null,"time":null,"magvar":null,"geoidheight":null,"name":"[DE-34519] Diemelsee [Diemelsee]","cmt":null,"desc":null,"src":null,"link1_href":null,"link1_text":null,"link1_type":null,"link2_href":null,"link2_text":null,"link2_type":null,"sym":null,"type":null,"fix":null,"sat":null,"hdop":null,"vdop":null,"pdop":null,"ageofdgpsdata":null,"dgpsid":null},"geometry":{"type":"Point","coordinates":[8.71977,51.37334]}},{"type":"Feature","properties":{"ele":null,"time":null,"magvar":null,"geoidheight":null,"name":"[DE-34519] Diemeltalsperre Parkplatz an der Sperrmauer [Diemelsee]","cmt":null,"desc":null,"src":null,"link1_href":null,"link1_text":null,"link1_type":null,"link2_href":null,"link2_text":null,"link2_type":null,"sym":null,"type":null,"fix":null,"sat":null,"hdop":null,"vdop":null,"pdop":null,"ageofdgpsdata":null,"dgpsid":null},"geometry":{"type":"Point","coordinates":[8.72389,51.3525]}},{"type":"Feature","properties":{"ele":null,"time":null,"magvar":null,"geoidheight":null,"name":"[DE-45768] Bikertreff Vogel","cmt":null,"desc":"Marler Straße 321 [Marl - Herne]","src":null,"link1_href":null,"link1_text":null,"link1_type":null,"link2_href":null,"link2_text":null,"link2_type":null,"sym":null,"type":null,"fix":null,"sat":null,"hdop":null,"vdop":null,"pdop":null,"ageofdgpsdata":null,"dgpsid":null},"geometry":{"type":"Point","coordinates":[7.14201,51.70402]}},{"type":"Feature","properties":{"ele":null,"time":null,"magvar":null,"geoidheight":null,"name":"[DE-59394] Biker Treff Nordkirchen","cmt":null,"desc":"Berger 25 [Nordkirchen - Berger]","src":null,"link1_href":null,"link1_text":null,"link1_type":null,"link2_href":null,"link2_text":null,"link2_type":null,"sym":null,"type":null,"fix":null,"sat":null,"hdop":null,"vdop":null,"pdop":null,"ageofdgpsdata":null,"dgpsid":null},"geometry":{"type":"Point","coordinates":[7.50622,51.72556]}},{"type":"Feature","properties":{"ele":null,"time":null,"magvar":null,"geoidheight":null,"name":"[DE-46499] Thunderbike Roadhouse","cmt":null,"desc":"Güterstraße 5 [Hamminkeln]","src":null,"link1_href":null,"link1_text":null,"link1_type":null,"link2_href":null,"link2_text":null,"link2_type":null,"sym":null,"type":null,"fix":null,"sat":null,"hdop":null,"vdop":null,"pdop":null,"ageofdgpsdata":null,"dgpsid":null},"geometry":{"type":"Point","coordinates":[6.60128,51.72948]}},{"type":"Feature","properties":{"ele":null,"time":null,"magvar":null,"geoidheight":null,"name":"[DE-45721] Biergarten Jup Haltern","cmt":null,"desc":"Hullerner Straße 107 [Haltern am See]","src":null,"link1_href":null,"link1_text":null,"link1_type":null,"link2_href":null,"link2_text":null,"link2_type":null,"sym":null,"type":null,"fix":null,"sat":null,"hdop":null,"vdop":null,"pdop":null,"ageofdgpsdata":null,"dgpsid":null},"geometry":{"type":"Point","coordinates":[7.2259,51.74048]}},{"type":"Feature","properties":{"ele":null,"time":null,"magvar":null,"geoidheight":null,"name":"[DE-45721] Lakeside-Inn","cmt":null,"desc":"Treff am See; Stockwieser Damm 291 [Haltern]","src":null,"link1_href":null,"link1_text":null,"link1_type":null,"link2_href":null,"link2_text":null,"link2_type":null,"sym":null,"type":null,"fix":null,"sat":null,"hdop":null,"vdop":null,"pdop":null,"ageofdgpsdata":null,"dgpsid":null},"geometry":{"type":"Point","coordinates":[7.2426,51.74552]}},{"type":"Feature","properties":{"ele":null,"time":null,"magvar":null,"geoidheight":null,"name":"[DE-45721] Drügen Pütt","cmt":null,"desc":"Münsterstraße 317 [Haltern am See]","src":null,"link1_href":null,"link1_text":null,"link1_type":null,"link2_href":null,"link2_text":null,"link2_type":null,"sym":null,"type":null,"fix":null,"sat":null,"hdop":null,"vdop":null,"pdop":null,"ageofdgpsdata":null,"dgpsid":null},"geometry":{"type":"Point","coordinates":[7.20683,51.77881]}},{"type":"Feature","properties":{"ele":null,"time":null,"magvar":null,"geoidheight":null,"name":"[DE-46325] Svens Biker Village","cmt":null,"desc":"Biker Village; Marbecker straße 80 [Borken]","src":null,"link1_href":null,"link1_text":null,"link1_type":null,"link2_href":null,"link2_text":null,"link2_type":null,"sym":null,"type":null,"fix":null,"sat":null,"hdop":null,"vdop":null,"pdop":null,"ageofdgpsdata":null,"dgpsid":null},"geometry":{"type":"Point","coordinates":[6.88691,51.80303]}},{"type":"Feature","properties":{"ele":null,"time":null,"magvar":null,"geoidheight":null,"name":"[DE-46419] Daddys Bikertreff","cmt":null,"desc":"Bocholter Straße 2 [Isselburg]","src":null,"link1_href":null,"link1_text":null,"link1_type":null,"link2_href":null,"link2_text":null,"link2_type":null,"sym":null,"type":null,"fix":null,"sat":null,"hdop":null,"vdop":null,"pdop":null,"ageofdgpsdata":null,"dgpsid":null},"geometry":{"type":"Point","coordinates":[6.44373,51.81921]}},{"type":"Feature","properties":{"ele":null,"time":null,"magvar":null,"geoidheight":null,"name":"[DE-46325] Rhee-Tona","cmt":null,"desc":"Bocholter Straße 325 [Borken - Rhedebrügge]","src":null,"link1_href":null,"link1_text":null,"link1_type":null,"link2_href":null,"link2_text":null,"link2_type":null,"sym":null,"type":null,"fix":null,"sat":null,"hdop":null,"vdop":null,"pdop":null,"ageofdgpsdata":null,"dgpsid":null},"geometry":{"type":"Point","coordinates":[6.73888,51.82977]}},{"type":"Feature","properties":{"ele":null,"time":null,"magvar":null,"geoidheight":null,"name":"[DE-48249] Rock & Blues Cafe Welte","cmt":null,"desc":"Welte 62 [Dülmen]","src":null,"link1_href":null,"link1_text":null,"link1_type":null,"link2_href":null,"link2_text":null,"link2_type":null,"sym":null,"type":null,"fix":null,"sat":null,"hdop":null,"vdop":null,"pdop":null,"ageofdgpsdata":null,"dgpsid":null},"geometry":{"type":"Point","coordinates":[7.23534,51.86513]}},{"type":"Feature","properties":{"ele":null,"time":null,"magvar":null,"geoidheight":null,"name":"[DE-48712] Bikertreff- Hochmoor","cmt":null,"desc":"Von-Braun-Straße 1 [Gescher]","src":null,"link1_href":null,"link1_text":null,"link1_type":null,"link2_href":null,"link2_text":null,"link2_type":null,"sym":null,"type":null,"fix":null,"sat":null,"hdop":null,"vdop":null,"pdop":null,"ageofdgpsdata":null,"dgpsid":null},"geometry":{"type":"Point","coordinates":[7.04236,51.89217]}},{"type":"Feature","properties":{"ele":null,"time":null,"magvar":null,"geoidheight":null,"name":"[DE-32760] Hermannsdenkmal Denkmalstr. [Detmold - Schling]","cmt":null,"desc":null,"src":null,"link1_href":null,"link1_text":null,"link1_type":null,"link2_href":null,"link2_text":null,"link2_type":null,"sym":null,"type":null,"fix":null,"sat":null,"hdop":null,"vdop":null,"pdop":null,"ageofdgpsdata":null,"dgpsid":null},"geometry":{"type":"Point","coordinates":[8.83961,51.90975]}},{"type":"Feature","properties":{"ele":null,"time":null,"magvar":null,"geoidheight":null,"name":"[DE-33428] Brocker Mühle (mittwoch abends)","cmt":null,"desc":"Groppeler Str. 63 [Marienfeld]","src":null,"link1_href":null,"link1_text":null,"link1_type":null,"link2_href":null,"link2_text":null,"link2_type":null,"sym":null,"type":null,"fix":null,"sat":null,"hdop":null,"vdop":null,"pdop":null,"ageofdgpsdata":null,"dgpsid":null},"geometry":{"type":"Point","coordinates":[8.27951,51.9259]}},{"type":"Feature","properties":{"ele":null,"time":null,"magvar":null,"geoidheight":null,"name":"[DE-48712] BieBie´s","cmt":null,"desc":"BieBie´s; Schüringsweg 6 [Gescher]","src":null,"link1_href":null,"link1_text":null,"link1_type":null,"link2_href":null,"link2_text":null,"link2_type":null,"sym":null,"type":null,"fix":null,"sat":null,"hdop":null,"vdop":null,"pdop":null,"ageofdgpsdata":null,"dgpsid":null},"geometry":{"type":"Point","coordinates":[7.02586,51.94305]}},{"type":"Feature","properties":{"ele":null,"time":null,"magvar":null,"geoidheight":null,"name":"[DE-48329] Loginusturm [Havixbeck - Uphoven]","cmt":null,"desc":null,"src":null,"link1_href":null,"link1_text":null,"link1_type":null,"link2_href":null,"link2_text":null,"link2_type":null,"sym":null,"type":null,"fix":null,"sat":null,"hdop":null,"vdop":null,"pdop":null,"ageofdgpsdata":null,"dgpsid":null},"geometry":{"type":"Point","coordinates":[7.36573,51.96043]}},{"type":"Feature","properties":{"ele":null,"time":null,"magvar":null,"geoidheight":null,"name":"[DE-48361] Motorradmuseum","cmt":null,"desc":"Beelener Str.32; Ab Ostern So  Fr [Beelen]","src":null,"link1_href":null,"link1_text":null,"link1_type":null,"link2_href":null,"link2_text":null,"link2_type":null,"sym":null,"type":null,"fix":null,"sat":null,"hdop":null,"vdop":null,"pdop":null,"ageofdgpsdata":null,"dgpsid":null},"geometry":{"type":"Point","coordinates":[8.13951,51.96297]}},{"type":"Feature","properties":{"ele":null,"time":null,"magvar":null,"geoidheight":null,"name":"[DE-33602] Black Rose Heeper Str.52 Biker Kneipe [Bielefeld - Stadtbezirk Mitte]","cmt":null,"desc":null,"src":null,"link1_href":null,"link1_text":null,"link1_type":null,"link2_href":null,"link2_text":null,"link2_type":null,"sym":null,"type":null,"fix":null,"sat":null,"hdop":null,"vdop":null,"pdop":null,"ageofdgpsdata":null,"dgpsid":null},"geometry":{"type":"Point","coordinates":[8.55489,52.02216]}},{"type":"Feature","properties":{"ele":null,"time":null,"magvar":null,"geoidheight":null,"name":"[DE-33611] Schillerstraße 18 [Bielefeld]","cmt":null,"desc":null,"src":null,"link1_href":null,"link1_text":null,"link1_type":null,"link2_href":null,"link2_text":null,"link2_type":null,"sym":null,"type":null,"fix":null,"sat":null,"hdop":null,"vdop":null,"pdop":null,"ageofdgpsdata":null,"dgpsid":null},"geometry":{"type":"Point","coordinates":[8.54661,52.04386]}},{"type":"Feature","properties":{"ele":null,"time":null,"magvar":null,"geoidheight":null,"name":"[DE-48366] Parkplatz Laer Altenberger Str. [Laer]","cmt":null,"desc":null,"src":null,"link1_href":null,"link1_text":null,"link1_type":null,"link2_href":null,"link2_text":null,"link2_type":null,"sym":null,"type":null,"fix":null,"sat":null,"hdop":null,"vdop":null,"pdop":null,"ageofdgpsdata":null,"dgpsid":null},"geometry":{"type":"Point","coordinates":[7.39274,52.05504]}},{"type":"Feature","properties":{"ele":null,"time":null,"magvar":null,"geoidheight":null,"name":"[DE-49196] Voßbrink Bikertref nur Donnerstags [Bad Laer - Hardensetten]","cmt":null,"desc":null,"src":null,"link1_href":null,"link1_text":null,"link1_type":null,"link2_href":null,"link2_text":null,"link2_type":null,"sym":null,"type":null,"fix":null,"sat":null,"hdop":null,"vdop":null,"pdop":null,"ageofdgpsdata":null,"dgpsid":null},"geometry":{"type":"Point","coordinates":[8.08365,52.08174]}},{"type":"Feature","properties":{"ele":null,"time":null,"magvar":null,"geoidheight":null,"name":"[DE-32107] Adrenalin Biker Pub Ahmser Str.97a Freitags Programm [Bad Salzuflen - Büxten]","cmt":null,"desc":null,"src":null,"link1_href":null,"link1_text":null,"link1_type":null,"link2_href":null,"link2_text":null,"link2_type":null,"sym":null,"type":null,"fix":null,"sat":null,"hdop":null,"vdop":null,"pdop":null,"ageofdgpsdata":null,"dgpsid":null},"geometry":{"type":"Point","coordinates":[8.67545,52.08246]}},{"type":"Feature","properties":{"ele":null,"time":null,"magvar":null,"geoidheight":null,"name":"[DE-48624] Cafe Bleifrei","cmt":null,"desc":"Haverbeck 28 [Schöppingen, Borken]","src":null,"link1_href":null,"link1_text":null,"link1_type":null,"link2_href":null,"link2_text":null,"link2_type":null,"sym":null,"type":null,"fix":null,"sat":null,"hdop":null,"vdop":null,"pdop":null,"ageofdgpsdata":null,"dgpsid":null},"geometry":{"type":"Point","coordinates":[7.21606,52.10591]}},{"type":"Feature","properties":{"ele":null,"time":null,"magvar":null,"geoidheight":null,"name":"[DE-49536] Waldwirtschaft Malepartus","cmt":null,"desc":"Malepartusweg 6; der nördlichst gelegene Bayerische Gasthof in Deutschland mit tollem Ausblick auf das Münsterland, Öffnungszeiten: Mo-Mi, Fr-So 11-23; Do Geschlossen, Tel. 05483 8337 [Lienen]","src":null,"link1_href":null,"link1_text":null,"link1_type":null,"link2_href":null,"link2_text":null,"link2_type":null,"sym":null,"type":null,"fix":null,"sat":null,"hdop":null,"vdop":null,"pdop":null,"ageofdgpsdata":null,"dgpsid":null},"geometry":{"type":"Point","coordinates":[7.98017,52.15936]}},{"type":"Feature","properties":{"ele":null,"time":null,"magvar":null,"geoidheight":null,"name":"[DE-48607] Felsenmühle","cmt":null,"desc":"Weiner 166 [Ochtrup]","src":null,"link1_href":null,"link1_text":null,"link1_type":null,"link2_href":null,"link2_text":null,"link2_type":null,"sym":null,"type":null,"fix":null,"sat":null,"hdop":null,"vdop":null,"pdop":null,"ageofdgpsdata":null,"dgpsid":null},"geometry":{"type":"Point","coordinates":[7.17919,52.19136]}},{"type":"Feature","properties":{"ele":null,"time":null,"magvar":null,"geoidheight":null,"name":"[DE-49545] Parkplatz Münsterlandblick [Tecklenburg]","cmt":null,"desc":null,"src":null,"link1_href":null,"link1_text":null,"link1_type":null,"link2_href":null,"link2_text":null,"link2_type":null,"sym":null,"type":null,"fix":null,"sat":null,"hdop":null,"vdop":null,"pdop":null,"ageofdgpsdata":null,"dgpsid":null},"geometry":{"type":"Point","coordinates":[7.80547,52.21895]}},{"type":"Feature","properties":{"ele":null,"time":null,"magvar":null,"geoidheight":null,"name":"[DE-49479] Motorradmuseum Ibbenbüren","cmt":null,"desc":"Lengericher Str.26 [Ibbenbüren]","src":null,"link1_href":null,"link1_text":null,"link1_type":null,"link2_href":null,"link2_text":null,"link2_type":null,"sym":null,"type":null,"fix":null,"sat":null,"hdop":null,"vdop":null,"pdop":null,"ageofdgpsdata":null,"dgpsid":null},"geometry":{"type":"Point","coordinates":[7.73117,52.25272]}},{"type":"Feature","properties":{"ele":null,"time":null,"magvar":null,"geoidheight":null,"name":"[DE-48485] Cafe Cross","cmt":null,"desc":"Landersum 36b [Neuenkirchen, Steinfurt]","src":null,"link1_href":null,"link1_text":null,"link1_type":null,"link2_href":null,"link2_text":null,"link2_type":null,"sym":null,"type":null,"fix":null,"sat":null,"hdop":null,"vdop":null,"pdop":null,"ageofdgpsdata":null,"dgpsid":null},"geometry":{"type":"Point","coordinates":[7.35159,52.28115]}},{"type":"Feature","properties":{"ele":null,"time":null,"magvar":null,"geoidheight":null,"name":"[DE-48455] Villa Kunterbund","cmt":null,"desc":"Mühlenberg [Bad Bentheim]","src":null,"link1_href":null,"link1_text":null,"link1_type":null,"link2_href":null,"link2_text":null,"link2_type":null,"sym":null,"type":null,"fix":null,"sat":null,"hdop":null,"vdop":null,"pdop":null,"ageofdgpsdata":null,"dgpsid":null},"geometry":{"type":"Point","coordinates":[7.10159,52.29316]}},{"type":"Feature","properties":{"ele":null,"time":null,"magvar":null,"geoidheight":null,"name":"[DE-48465] Nordhorn / Isterberg Parkplatz [Isterberg]","cmt":null,"desc":null,"src":null,"link1_href":null,"link1_text":null,"link1_type":null,"link2_href":null,"link2_text":null,"link2_type":null,"sym":null,"type":null,"fix":null,"sat":null,"hdop":null,"vdop":null,"pdop":null,"ageofdgpsdata":null,"dgpsid":null},"geometry":{"type":"Point","coordinates":[7.14332,52.35639]}},{"type":"Feature","properties":{"ele":null,"time":null,"magvar":null,"geoidheight":null,"name":"[DE-49401] Parc-Cafe [NEUENWALDE]","cmt":null,"desc":null,"src":null,"link1_href":null,"link1_text":null,"link1_type":null,"link2_href":null,"link2_text":null,"link2_type":null,"sym":null,"type":null,"fix":null,"sat":null,"hdop":null,"vdop":null,"pdop":null,"ageofdgpsdata":null,"dgpsid":null},"geometry":{"type":"Point","coordinates":[8.15411,52.50336]}},{"type":"Feature","properties":{"ele":null,"time":null,"magvar":null,"geoidheight":null,"name":"[DE-49849] 49849 Wilsum, Echtelerstrasse 6, Imbiss & Bikertreff","cmt":null,"desc":null,"src":null,"link1_href":null,"link1_text":null,"link1_type":null,"link2_href":null,"link2_text":null,"link2_type":null,"sym":null,"type":null,"fix":null,"sat":null,"hdop":null,"vdop":null,"pdop":null,"ageofdgpsdata":null,"dgpsid":null},"geometry":{"type":"Point","coordinates":[6.83242,52.53997]}},{"type":"Feature","properties":{"ele":null,"time":null,"magvar":null,"geoidheight":null,"name":"[DE-26683] Bikers Inn","cmt":null,"desc":"Am Ring 2 [Saterland-Ramsloh]","src":null,"link1_href":null,"link1_text":null,"link1_type":null,"link2_href":null,"link2_text":null,"link2_type":null,"sym":null,"type":null,"fix":null,"sat":null,"hdop":null,"vdop":null,"pdop":null,"ageofdgpsdata":null,"dgpsid":null},"geometry":{"type":"Point","coordinates":[7.66984,53.10828]}},{"type":"Feature","properties":{"ele":null,"time":null,"magvar":null,"geoidheight":null,"name":"[DE-26689] Biker Hotel Zur Schanze","cmt":null,"desc":"Hauptstraße 717 [Apen-Holtgast]","src":null,"link1_href":null,"link1_text":null,"link1_type":null,"link2_href":null,"link2_text":null,"link2_type":null,"sym":null,"type":null,"fix":null,"sat":null,"hdop":null,"vdop":null,"pdop":null,"ageofdgpsdata":null,"dgpsid":null},"geometry":{"type":"Point","coordinates":[7.71485,53.21204]}},{"type":"Feature","properties":{"ele":null,"time":null,"magvar":null,"geoidheight":null,"name":"[DE-26670] Waldhaus Hollsand","cmt":null,"desc":"Neufirreler Str.18 [Uplengen - Großoldendorf]","src":null,"link1_href":null,"link1_text":null,"link1_type":null,"link2_href":null,"link2_text":null,"link2_type":null,"sym":null,"type":null,"fix":null,"sat":null,"hdop":null,"vdop":null,"pdop":null,"ageofdgpsdata":null,"dgpsid":null},"geometry":{"type":"Point","coordinates":[7.7085,53.33722]}},{"type":"Feature","properties":{"ele":null,"time":null,"magvar":null,"geoidheight":null,"name":"[DE-26316] Kurhaus Dangast Varel Dangast [Varel - Dangast]","cmt":null,"desc":null,"src":null,"link1_href":null,"link1_text":null,"link1_type":null,"link2_href":null,"link2_text":null,"link2_type":null,"sym":null,"type":null,"fix":null,"sat":null,"hdop":null,"vdop":null,"pdop":null,"ageofdgpsdata":null,"dgpsid":null},"geometry":{"type":"Point","coordinates":[8.11789,53.44471]}},{"type":"Feature","properties":{"ele":null,"time":null,"magvar":null,"geoidheight":null,"name":"[DE-26553] Zum Kronprinzen Kirchstr.11 Bike Motel [Dornum]","cmt":null,"desc":null,"src":null,"link1_href":null,"link1_text":null,"link1_type":null,"link2_href":null,"link2_text":null,"link2_type":null,"sym":null,"type":null,"fix":null,"sat":null,"hdop":null,"vdop":null,"pdop":null,"ageofdgpsdata":null,"dgpsid":null},"geometry":{"type":"Point","coordinates":[7.42848,53.64754]}},{"type":"Feature","properties":{"ele":null,"time":null,"magvar":null,"geoidheight":null,"name":"[DE-27632] Bikertreff Kutterhafen Dorum","cmt":null,"desc":null,"src":null,"link1_href":null,"link1_text":null,"link1_type":null,"link2_href":null,"link2_text":null,"link2_type":null,"sym":null,"type":null,"fix":null,"sat":null,"hdop":null,"vdop":null,"pdop":null,"ageofdgpsdata":null,"dgpsid":null},"geometry":{"type":"Point","coordinates":[8.51746,53.73848]}},{"type":"Feature","properties":{"ele":null,"time":null,"magvar":null,"geoidheight":null,"name":"[DE-27632] Dorum","cmt":null,"desc":null,"src":null,"link1_href":null,"link1_text":null,"link1_type":null,"link2_href":null,"link2_text":null,"link2_type":null,"sym":null,"type":null,"fix":null,"sat":null,"hdop":null,"vdop":null,"pdop":null,"ageofdgpsdata":null,"dgpsid":null},"geometry":{"type":"Point","coordinates":[8.51746,53.73849]}},{"type":"Feature","properties":{"ele":null,"time":null,"magvar":null,"geoidheight":null,"name":"[CH-CH-9107] Bikertreff Schwägalp","cmt":null,"desc":"Hundwil, Schwägalp","src":null,"link1_href":null,"link1_text":null,"link1_type":null,"link2_href":null,"link2_text":null,"link2_type":null,"sym":null,"type":null,"fix":null,"sat":null,"hdop":null,"vdop":null,"pdop":null,"ageofdgpsdata":null,"dgpsid":null},"geometry":{"type":"Point","coordinates":[9.32002,47.25592]}},{"type":"Feature","properties":{"ele":null,"time":null,"magvar":null,"geoidheight":null,"name":"[CH-9606] Büll Mloto","cmt":null,"desc":"Soorstr. [Bütschwil]","src":null,"link1_href":null,"link1_text":null,"link1_type":null,"link2_href":null,"link2_text":null,"link2_type":null,"sym":null,"type":null,"fix":null,"sat":null,"hdop":null,"vdop":null,"pdop":null,"ageofdgpsdata":null,"dgpsid":null},"geometry":{"type":"Point","coordinates":[9.07634,47.35507]}},{"type":"Feature","properties":{"ele":null,"time":null,"magvar":null,"geoidheight":null,"name":"[DE-88682] Bikers Inn","cmt":null,"desc":"Salem, Bonhoefferstrasse 1","src":null,"link1_href":null,"link1_text":null,"link1_type":null,"link2_href":null,"link2_text":null,"link2_type":null,"sym":null,"type":null,"fix":null,"sat":null,"hdop":null,"vdop":null,"pdop":null,"ageofdgpsdata":null,"dgpsid":null},"geometry":{"type":"Point","coordinates":[9.29107,47.77647]}},{"type":"Feature","properties":{"ele":null,"time":null,"magvar":null,"geoidheight":null,"name":"[DE-72361] Lochen [Hausen - Oberhausen]","cmt":null,"desc":null,"src":null,"link1_href":null,"link1_text":null,"link1_type":null,"link2_href":null,"link2_text":null,"link2_type":null,"sym":null,"type":null,"fix":null,"sat":null,"hdop":null,"vdop":null,"pdop":null,"ageofdgpsdata":null,"dgpsid":null},"geometry":{"type":"Point","coordinates":[8.85144,48.22144]}},{"type":"Feature","properties":{"ele":null,"time":null,"magvar":null,"geoidheight":null,"name":"[DE-71229] Glemseckstr. gegenüber vom Hotel [Leonberg-Glemseck]","cmt":null,"desc":null,"src":null,"link1_href":null,"link1_text":null,"link1_type":null,"link2_href":null,"link2_text":null,"link2_type":null,"sym":null,"type":null,"fix":null,"sat":null,"hdop":null,"vdop":null,"pdop":null,"ageofdgpsdata":null,"dgpsid":null},"geometry":{"type":"Point","coordinates":[9.04156,48.76752]}},{"type":"Feature","properties":{"ele":null,"time":null,"magvar":null,"geoidheight":null,"name":"[DE-74245] Bikertreff Platte mit Imbissbude [Löwenstein - Reisach]","cmt":null,"desc":null,"src":null,"link1_href":null,"link1_text":null,"link1_type":null,"link2_href":null,"link2_text":null,"link2_type":null,"sym":null,"type":null,"fix":null,"sat":null,"hdop":null,"vdop":null,"pdop":null,"ageofdgpsdata":null,"dgpsid":null},"geometry":{"type":"Point","coordinates":[9.39554,49.09222]}},{"type":"Feature","properties":{"ele":null,"time":null,"magvar":null,"geoidheight":null,"name":"[DE-74249] Trautenhof [Trautenhof]","cmt":null,"desc":null,"src":null,"link1_href":null,"link1_text":null,"link1_type":null,"link2_href":null,"link2_text":null,"link2_type":null,"sym":null,"type":null,"fix":null,"sat":null,"hdop":null,"vdop":null,"pdop":null,"ageofdgpsdata":null,"dgpsid":null},"geometry":{"type":"Point","coordinates":[9.45505,49.2882]}},{"type":"Feature","properties":{"ele":null,"time":null,"magvar":null,"geoidheight":null,"name":"[DE-74821] Rode Station [Mosbach - Bergfeld]","cmt":null,"desc":null,"src":null,"link1_href":null,"link1_text":null,"link1_type":null,"link2_href":null,"link2_text":null,"link2_type":null,"sym":null,"type":null,"fix":null,"sat":null,"hdop":null,"vdop":null,"pdop":null,"ageofdgpsdata":null,"dgpsid":null},"geometry":{"type":"Point","coordinates":[9.1806,49.34444]}},{"type":"Feature","properties":{"ele":null,"time":null,"magvar":null,"geoidheight":null,"name":"[DE-64754] Kailbach [Hesseneck - Kailbach]","cmt":null,"desc":null,"src":null,"link1_href":null,"link1_text":null,"link1_type":null,"link2_href":null,"link2_text":null,"link2_type":null,"sym":null,"type":null,"fix":null,"sat":null,"hdop":null,"vdop":null,"pdop":null,"ageofdgpsdata":null,"dgpsid":null},"geometry":{"type":"Point","coordinates":[9.07699,49.53577]}},{"type":"Feature","properties":{"ele":null,"time":null,"magvar":null,"geoidheight":null,"name":"[DE-64759] Sennsbachtal [Sensbachtal]","cmt":null,"desc":null,"src":null,"link1_href":null,"link1_text":null,"link1_type":null,"link2_href":null,"link2_text":null,"link2_type":null,"sym":null,"type":null,"fix":null,"sat":null,"hdop":null,"vdop":null,"pdop":null,"ageofdgpsdata":null,"dgpsid":null},"geometry":{"type":"Point","coordinates":[9.01117,49.54952]}},{"type":"Feature","properties":{"ele":null,"time":null,"magvar":null,"geoidheight":null,"name":"[DE-64754] Zur Waldeslust Siegfriedstr.57 [Hesseneck - Schöllenbach]","cmt":null,"desc":null,"src":null,"link1_href":null,"link1_text":null,"link1_type":null,"link2_href":null,"link2_text":null,"link2_type":null,"sym":null,"type":null,"fix":null,"sat":null,"hdop":null,"vdop":null,"pdop":null,"ageofdgpsdata":null,"dgpsid":null},"geometry":{"type":"Point","coordinates":[9.06799,49.56673]}},{"type":"Feature","properties":{"ele":null,"time":null,"magvar":null,"geoidheight":null,"name":"[DE-64754] Motorcafe Hill Up Siegfriedstr.53 [Hesseneck - Schöllenbach]","cmt":null,"desc":null,"src":null,"link1_href":null,"link1_text":null,"link1_type":null,"link2_href":null,"link2_text":null,"link2_type":null,"sym":null,"type":null,"fix":null,"sat":null,"hdop":null,"vdop":null,"pdop":null,"ageofdgpsdata":null,"dgpsid":null},"geometry":{"type":"Point","coordinates":[9.06782,49.56686]}},{"type":"Feature","properties":{"ele":null,"time":null,"magvar":null,"geoidheight":null,"name":"[DE-64711] Marbach Stausee Odenwald [Erbach - Haisterbach]","cmt":null,"desc":null,"src":null,"link1_href":null,"link1_text":null,"link1_type":null,"link2_href":null,"link2_text":null,"link2_type":null,"sym":null,"type":null,"fix":null,"sat":null,"hdop":null,"vdop":null,"pdop":null,"ageofdgpsdata":null,"dgpsid":null},"geometry":{"type":"Point","coordinates":[8.97639,49.60972]}},{"type":"Feature","properties":{"ele":null,"time":null,"magvar":null,"geoidheight":null,"name":"[DE-64720] Motorradmuseum Michelstadt","cmt":null,"desc":"Walter Rathenau Allee 17 [Schimmelshütte]","src":null,"link1_href":null,"link1_text":null,"link1_type":null,"link2_href":null,"link2_text":null,"link2_type":null,"sym":null,"type":null,"fix":null,"sat":null,"hdop":null,"vdop":null,"pdop":null,"ageofdgpsdata":null,"dgpsid":null},"geometry":{"type":"Point","coordinates":[9.00293,49.68762]}},{"type":"Feature","properties":{"ele":null,"time":null,"magvar":null,"geoidheight":null,"name":"[DE-63869] Waldhaus Zum Engländer [Heigenbrücken - Jakobsthal] - JPR 04'2016","cmt":null,"desc":null,"src":null,"link1_href":null,"link1_text":null,"link1_type":null,"link2_href":null,"link2_text":null,"link2_type":null,"sym":null,"type":null,"fix":null,"sat":null,"hdop":null,"vdop":null,"pdop":null,"ageofdgpsdata":null,"dgpsid":null},"geometry":{"type":"Point","coordinates":[9.3119,50.05644]}},{"type":"Feature","properties":{"ele":null,"time":null,"magvar":null,"geoidheight":null,"name":"[DE-97778] Waldschänke Bayrische Schanz [Fellen - Neuhof] - JPR 04'2016","cmt":null,"desc":null,"src":null,"link1_href":null,"link1_text":null,"link1_type":null,"link2_href":null,"link2_text":null,"link2_type":null,"sym":null,"type":null,"fix":null,"sat":null,"hdop":null,"vdop":null,"pdop":null,"ageofdgpsdata":null,"dgpsid":null},"geometry":{"type":"Point","coordinates":[9.52496,50.10566]}},{"type":"Feature","properties":{"ele":null,"time":null,"magvar":null,"geoidheight":null,"name":"[DE-36391] Bikertreff Spessart - Landgasthof Jossgrund [Sinntal - Jossa] - JPR 04'2016","cmt":null,"desc":null,"src":null,"link1_href":null,"link1_text":null,"link1_type":null,"link2_href":null,"link2_text":null,"link2_type":null,"sym":null,"type":null,"fix":null,"sat":null,"hdop":null,"vdop":null,"pdop":null,"ageofdgpsdata":null,"dgpsid":null},"geometry":{"type":"Point","coordinates":[9.59335,50.23828]}},{"type":"Feature","properties":{"ele":null,"time":null,"magvar":null,"geoidheight":null,"name":"[DE-36355] Oldtimer Café, Hartmannshainer Str.32","cmt":null,"desc":"36355 Herchenhain [Grebenhain - Schöne Aussicht]","src":null,"link1_href":null,"link1_text":null,"link1_type":null,"link2_href":null,"link2_text":null,"link2_type":null,"sym":null,"type":null,"fix":null,"sat":null,"hdop":null,"vdop":null,"pdop":null,"ageofdgpsdata":null,"dgpsid":null},"geometry":{"type":"Point","coordinates":[9.27246,50.47469]}},{"type":"Feature","properties":{"ele":null,"time":null,"magvar":null,"geoidheight":null,"name":"[DE-63679] Falltorhaus [Schotten - Betzenrod] - JPR 04'2016","cmt":null,"desc":null,"src":null,"link1_href":null,"link1_text":null,"link1_type":null,"link2_href":null,"link2_text":null,"link2_type":null,"sym":null,"type":null,"fix":null,"sat":null,"hdop":null,"vdop":null,"pdop":null,"ageofdgpsdata":null,"dgpsid":null},"geometry":{"type":"Point","coordinates":[9.09495,50.51341]}},{"type":"Feature","properties":{"ele":null,"time":null,"magvar":null,"geoidheight":null,"name":"[DE-36110] Landgasthof Porta [Schlitz - Pfordt] - JPR 04'2016","cmt":null,"desc":null,"src":null,"link1_href":null,"link1_text":null,"link1_type":null,"link2_href":null,"link2_text":null,"link2_type":null,"sym":null,"type":null,"fix":null,"sat":null,"hdop":null,"vdop":null,"pdop":null,"ageofdgpsdata":null,"dgpsid":null},"geometry":{"type":"Point","coordinates":[9.59941,50.65738]}},{"type":"Feature","properties":{"ele":null,"time":null,"magvar":null,"geoidheight":null,"name":"[DE-34549] Zündstoff Edersee","cmt":null,"desc":null,"src":null,"link1_href":null,"link1_text":null,"link1_type":null,"link2_href":null,"link2_text":null,"link2_type":null,"sym":null,"type":null,"fix":null,"sat":null,"hdop":null,"vdop":null,"pdop":null,"ageofdgpsdata":null,"dgpsid":null},"geometry":{"type":"Point","coordinates":[9.05493,51.16581]}},{"type":"Feature","properties":{"ele":null,"time":null,"magvar":null,"geoidheight":null,"name":"[DE-34549] EDERTALSEE: Staumauer Edersee. Zeiten: täglich  nachmittags. Besonderheit: Wochenendtreff [Edertal - Hemfurth]","cmt":null,"desc":null,"src":null,"link1_href":null,"link1_text":null,"link1_type":null,"link2_href":null,"link2_text":null,"link2_type":null,"sym":null,"type":null,"fix":null,"sat":null,"hdop":null,"vdop":null,"pdop":null,"ageofdgpsdata":null,"dgpsid":null},"geometry":{"type":"Point","coordinates":[9.05383,51.16843]}},{"type":"Feature","properties":{"ele":null,"time":null,"magvar":null,"geoidheight":null,"name":"[DE-34549] Waldhotel Dornröschen","cmt":null,"desc":null,"src":null,"link1_href":null,"link1_text":null,"link1_type":null,"link2_href":null,"link2_text":null,"link2_type":null,"sym":null,"type":null,"fix":null,"sat":null,"hdop":null,"vdop":null,"pdop":null,"ageofdgpsdata":null,"dgpsid":null},"geometry":{"type":"Point","coordinates":[9.03575,51.17898]}},{"type":"Feature","properties":{"ele":null,"time":null,"magvar":null,"geoidheight":null,"name":"[DE-34549] Edersee Sperrmauer [Edertal - Edersee]","cmt":null,"desc":null,"src":null,"link1_href":null,"link1_text":null,"link1_type":null,"link2_href":null,"link2_text":null,"link2_type":null,"sym":null,"type":null,"fix":null,"sat":null,"hdop":null,"vdop":null,"pdop":null,"ageofdgpsdata":null,"dgpsid":null},"geometry":{"type":"Point","coordinates":[9.0603,51.18585]}},{"type":"Feature","properties":{"ele":null,"time":null,"magvar":null,"geoidheight":null,"name":"[DE-34270] Zum goldenen Stern Hauptstr.21 [Schauenburg - Breitenbach]","cmt":null,"desc":null,"src":null,"link1_href":null,"link1_text":null,"link1_type":null,"link2_href":null,"link2_text":null,"link2_type":null,"sym":null,"type":null,"fix":null,"sat":null,"hdop":null,"vdop":null,"pdop":null,"ageofdgpsdata":null,"dgpsid":null},"geometry":{"type":"Point","coordinates":[9.31129,51.28137]}},{"type":"Feature","properties":{"ele":null,"time":null,"magvar":null,"geoidheight":null,"name":"[DE-34125] Hotel Roter Kater / Graue Katze Fuldatalstr.364 So ab 12Uhr [Kassel - Wolfsanger/Hasenhecke]","cmt":null,"desc":null,"src":null,"link1_href":null,"link1_text":null,"link1_type":null,"link2_href":null,"link2_text":null,"link2_type":null,"sym":null,"type":null,"fix":null,"sat":null,"hdop":null,"vdop":null,"pdop":null,"ageofdgpsdata":null,"dgpsid":null},"geometry":{"type":"Point","coordinates":[9.54247,51.32831]}},{"type":"Feature","properties":{"ele":null,"time":null,"magvar":null,"geoidheight":null,"name":"[DE-34359] Bierlokal Scharfe Ecke Wilhelmsplatz 1 Wochenende [Reinhardshagen]","cmt":null,"desc":null,"src":null,"link1_href":null,"link1_text":null,"link1_type":null,"link2_href":null,"link2_text":null,"link2_type":null,"sym":null,"type":null,"fix":null,"sat":null,"hdop":null,"vdop":null,"pdop":null,"ageofdgpsdata":null,"dgpsid":null},"geometry":{"type":"Point","coordinates":[9.60184,51.49607]}},{"type":"Feature","properties":{"ele":null,"time":null,"magvar":null,"geoidheight":null,"name":"[DE-34359] REINHARDSHAGEN/VECKERHAGEN: Zur Fähre. Weserfähre Zeiten: täglich außer Montag","cmt":null,"desc":"nachmittags. Besonderheit: Fährbetrieb bis 19 Uhr [Reinhardshagen]","src":null,"link1_href":null,"link1_text":null,"link1_type":null,"link2_href":null,"link2_text":null,"link2_type":null,"sym":null,"type":null,"fix":null,"sat":null,"hdop":null,"vdop":null,"pdop":null,"ageofdgpsdata":null,"dgpsid":null},"geometry":{"type":"Point","coordinates":[9.60528,51.49806]}},{"type":"Feature","properties":{"ele":null,"time":null,"magvar":null,"geoidheight":null,"name":"[DE-34346] Fähre bei Hemeln Reinhardshagen [Hann. Münden - Hemeln]","cmt":null,"desc":null,"src":null,"link1_href":null,"link1_text":null,"link1_type":null,"link2_href":null,"link2_text":null,"link2_type":null,"sym":null,"type":null,"fix":null,"sat":null,"hdop":null,"vdop":null,"pdop":null,"ageofdgpsdata":null,"dgpsid":null},"geometry":{"type":"Point","coordinates":[9.60625,51.49855]}},{"type":"Feature","properties":{"ele":null,"time":null,"magvar":null,"geoidheight":null,"name":"[DE-37194] Landhotel Zum Anker Weserstr.14 Dienstag Ruhetag [Wahlsburg]","cmt":null,"desc":null,"src":null,"link1_href":null,"link1_text":null,"link1_type":null,"link2_href":null,"link2_text":null,"link2_type":null,"sym":null,"type":null,"fix":null,"sat":null,"hdop":null,"vdop":null,"pdop":null,"ageofdgpsdata":null,"dgpsid":null},"geometry":{"type":"Point","coordinates":[9.5525,51.62445]}},{"type":"Feature","properties":{"ele":null,"time":null,"magvar":null,"geoidheight":null,"name":"[DE-37194] Fähre bei Wahlsburg Weserstr. [Wahlsburg]","cmt":null,"desc":null,"src":null,"link1_href":null,"link1_text":null,"link1_type":null,"link2_href":null,"link2_text":null,"link2_type":null,"sym":null,"type":null,"fix":null,"sat":null,"hdop":null,"vdop":null,"pdop":null,"ageofdgpsdata":null,"dgpsid":null},"geometry":{"type":"Point","coordinates":[9.55195,51.6253]}},{"type":"Feature","properties":{"ele":null,"time":null,"magvar":null,"geoidheight":null,"name":"[DE-37194] Fähre bei Wahmbeck [Bodenfelde - Wahmbeck]","cmt":null,"desc":null,"src":null,"link1_href":null,"link1_text":null,"link1_type":null,"link2_href":null,"link2_text":null,"link2_type":null,"sym":null,"type":null,"fix":null,"sat":null,"hdop":null,"vdop":null,"pdop":null,"ageofdgpsdata":null,"dgpsid":null},"geometry":{"type":"Point","coordinates":[9.52288,51.62578]}},{"type":"Feature","properties":{"ele":null,"time":null,"magvar":null,"geoidheight":null,"name":"[DE-37194] Onkel Palms Hütte Vorwerk5 Dienstag Ruhetag [Wahlsburg]","cmt":null,"desc":null,"src":null,"link1_href":null,"link1_text":null,"link1_type":null,"link2_href":null,"link2_text":null,"link2_type":null,"sym":null,"type":null,"fix":null,"sat":null,"hdop":null,"vdop":null,"pdop":null,"ageofdgpsdata":null,"dgpsid":null},"geometry":{"type":"Point","coordinates":[9.55017,51.6258]}},{"type":"Feature","properties":{"ele":null,"time":null,"magvar":null,"geoidheight":null,"name":"[DE-37688] Fähre bei Würgassen [Beverungen - Würgassen]","cmt":null,"desc":null,"src":null,"link1_href":null,"link1_text":null,"link1_type":null,"link2_href":null,"link2_text":null,"link2_type":null,"sym":null,"type":null,"fix":null,"sat":null,"hdop":null,"vdop":null,"pdop":null,"ageofdgpsdata":null,"dgpsid":null},"geometry":{"type":"Point","coordinates":[9.41788,51.64442]}},{"type":"Feature","properties":{"ele":null,"time":null,"magvar":null,"geoidheight":null,"name":"[DE-33034] Pizzeria Paparazzi Am Markt7 Ab 17Uhr [Brakel - Gehrden]","cmt":null,"desc":null,"src":null,"link1_href":null,"link1_text":null,"link1_type":null,"link2_href":null,"link2_text":null,"link2_type":null,"sym":null,"type":null,"fix":null,"sat":null,"hdop":null,"vdop":null,"pdop":null,"ageofdgpsdata":null,"dgpsid":null},"geometry":{"type":"Point","coordinates":[9.11873,51.65529]}},{"type":"Feature","properties":{"ele":null,"time":null,"magvar":null,"geoidheight":null,"name":"[DE-37697] Villa Löwenherz WürgasserStr5 [Lauenförde]","cmt":null,"desc":null,"src":null,"link1_href":null,"link1_text":null,"link1_type":null,"link2_href":null,"link2_text":null,"link2_type":null,"sym":null,"type":null,"fix":null,"sat":null,"hdop":null,"vdop":null,"pdop":null,"ageofdgpsdata":null,"dgpsid":null},"geometry":{"type":"Point","coordinates":[9.38657,51.65917]}},{"type":"Feature","properties":{"ele":null,"time":null,"magvar":null,"geoidheight":null,"name":"[DE-33039] Gut Albrock [Nieheim - Erwitzen]","cmt":null,"desc":null,"src":null,"link1_href":null,"link1_text":null,"link1_type":null,"link2_href":null,"link2_text":null,"link2_type":null,"sym":null,"type":null,"fix":null,"sat":null,"hdop":null,"vdop":null,"pdop":null,"ageofdgpsdata":null,"dgpsid":null},"geometry":{"type":"Point","coordinates":[9.1513,51.75712]}},{"type":"Feature","properties":{"ele":null,"time":null,"magvar":null,"geoidheight":null,"name":"[DE-34346] Zur Fähre Fährstr.5 Ausflugslokal [Hann. Münden - Hemeln]","cmt":null,"desc":null,"src":null,"link1_href":null,"link1_text":null,"link1_type":null,"link2_href":null,"link2_text":null,"link2_type":null,"sym":null,"type":null,"fix":null,"sat":null,"hdop":null,"vdop":null,"pdop":null,"ageofdgpsdata":null,"dgpsid":null},"geometry":{"type":"Point","coordinates":[9.60699,51.49848]}},{"type":"Feature","properties":{"ele":null,"time":null,"magvar":null,"geoidheight":null,"name":"[DE-73667] Ebni-See (30.07.07 09:28:48 -1770929916°/-1908381298kmh","cmt":null,"desc":null,"src":null,"link1_href":null,"link1_text":null,"link1_type":null,"link2_href":null,"link2_text":null,"link2_type":null,"sym":null,"type":null,"fix":null,"sat":null,"hdop":null,"vdop":null,"pdop":null,"ageofdgpsdata":null,"dgpsid":null},"geometry":{"type":"Point","coordinates":[9.60898,48.91808]}},{"type":"Feature","properties":{"ele":null,"time":null,"magvar":null,"geoidheight":null,"name":"[DE-37217] Museum im Erlebisspark Ziegenberg 3 [Witzenhausen]","cmt":null,"desc":null,"src":null,"link1_href":null,"link1_text":null,"link1_type":null,"link2_href":null,"link2_text":null,"link2_type":null,"sym":null,"type":null,"fix":null,"sat":null,"hdop":null,"vdop":null,"pdop":null,"ageofdgpsdata":null,"dgpsid":null},"geometry":{"type":"Point","coordinates":[9.76754,51.37258]}},{"type":"Feature","properties":{"ele":null,"time":null,"magvar":null,"geoidheight":null,"name":"[DE-D-88138] Manfreds Biker-Mühle","cmt":null,"desc":"Hergensweiler, Obernützenbrugg 2","src":null,"link1_href":null,"link1_text":null,"link1_type":null,"link2_href":null,"link2_text":null,"link2_type":null,"sym":null,"type":null,"fix":null,"sat":null,"hdop":null,"vdop":null,"pdop":null,"ageofdgpsdata":null,"dgpsid":null},"geometry":{"type":"Point","coordinates":[9.81296,47.63551]}},{"type":"Feature","properties":{"ele":null,"time":null,"magvar":null,"geoidheight":null,"name":"[DE-73111] Ställe [Lauterstein]","cmt":null,"desc":null,"src":null,"link1_href":null,"link1_text":null,"link1_type":null,"link2_href":null,"link2_text":null,"link2_type":null,"sym":null,"type":null,"fix":null,"sat":null,"hdop":null,"vdop":null,"pdop":null,"ageofdgpsdata":null,"dgpsid":null},"geometry":{"type":"Point","coordinates":[9.88122,48.71105]}},{"type":"Feature","properties":{"ele":null,"time":null,"magvar":null,"geoidheight":null,"name":"[AT-6883] Forellenessen in Au","cmt":null,"desc":null,"src":null,"link1_href":null,"link1_text":null,"link1_type":null,"link2_href":null,"link2_text":null,"link2_type":null,"sym":null,"type":null,"fix":null,"sat":null,"hdop":null,"vdop":null,"pdop":null,"ageofdgpsdata":null,"dgpsid":null},"geometry":{"type":"Point","coordinates":[9.96893,47.33019]}},{"type":"Feature","properties":{"ele":null,"time":null,"magvar":null,"geoidheight":null,"name":"[DE-99826] Zella","cmt":null,"desc":null,"src":null,"link1_href":null,"link1_text":null,"link1_type":null,"link2_href":null,"link2_text":null,"link2_type":null,"sym":null,"type":null,"fix":null,"sat":null,"hdop":null,"vdop":null,"pdop":null,"ageofdgpsdata":null,"dgpsid":null},"geometry":{"type":"Point","coordinates":[10.29642,51.10692]}},{"type":"Feature","properties":{"ele":null,"time":null,"magvar":null,"geoidheight":null,"name":"[AT-6542] Pfunds Hoamatl","cmt":null,"desc":null,"src":null,"link1_href":null,"link1_text":null,"link1_type":null,"link2_href":null,"link2_text":null,"link2_type":null,"sym":null,"type":null,"fix":null,"sat":null,"hdop":null,"vdop":null,"pdop":null,"ageofdgpsdata":null,"dgpsid":null},"geometry":{"type":"Point","coordinates":[10.52939,46.96621]}},{"type":"Feature","properties":{"ele":null,"time":null,"magvar":null,"geoidheight":null,"name":"[DE-99755] Hostel und DDR Restaurant [Hohenstein]","cmt":null,"desc":null,"src":null,"link1_href":null,"link1_text":null,"link1_type":null,"link2_href":null,"link2_text":null,"link2_type":null,"sym":null,"type":null,"fix":null,"sat":null,"hdop":null,"vdop":null,"pdop":null,"ageofdgpsdata":null,"dgpsid":null},"geometry":{"type":"Point","coordinates":[10.58989,51.55923]}},{"type":"Feature","properties":{"ele":null,"time":null,"magvar":null,"geoidheight":null,"name":"[DE-98544] Gasthaus & Hotel \"Sterngrund\"","cmt":null,"desc":"Sterngrund 1 [Zella-Mehlis] - JPR 04'2016","src":null,"link1_href":null,"link1_text":null,"link1_type":null,"link2_href":null,"link2_text":null,"link2_type":null,"sym":null,"type":null,"fix":null,"sat":null,"hdop":null,"vdop":null,"pdop":null,"ageofdgpsdata":null,"dgpsid":null},"geometry":{"type":"Point","coordinates":[10.68813,50.68233]}},{"type":"Feature","properties":{"ele":null,"time":null,"magvar":null,"geoidheight":null,"name":"[DE-D-86975] Auf dem Auerberg","cmt":null,"desc":"Bernbeuren, Auerberg 2","src":null,"link1_href":null,"link1_text":null,"link1_type":null,"link2_href":null,"link2_text":null,"link2_type":null,"sym":null,"type":null,"fix":null,"sat":null,"hdop":null,"vdop":null,"pdop":null,"ageofdgpsdata":null,"dgpsid":null},"geometry":{"type":"Point","coordinates":[10.7368,47.73529]}},{"type":"Feature","properties":{"ele":null,"time":null,"magvar":null,"geoidheight":null,"name":"[DE-38889] Rappbode Talaperre Sa [Altenbrak - Wendefurth]","cmt":null,"desc":null,"src":null,"link1_href":null,"link1_text":null,"link1_type":null,"link2_href":null,"link2_text":null,"link2_type":null,"sym":null,"type":null,"fix":null,"sat":null,"hdop":null,"vdop":null,"pdop":null,"ageofdgpsdata":null,"dgpsid":null},"geometry":{"type":"Point","coordinates":[10.89253,51.74036]}},{"type":"Feature","properties":{"ele":null,"time":null,"magvar":null,"geoidheight":null,"name":"[DE-D-82383] Bayrischer Rigi","cmt":null,"desc":"Hohenpeissenberg, Matthäus-Günther-Platz 2","src":null,"link1_href":null,"link1_text":null,"link1_type":null,"link2_href":null,"link2_text":null,"link2_type":null,"sym":null,"type":null,"fix":null,"sat":null,"hdop":null,"vdop":null,"pdop":null,"ageofdgpsdata":null,"dgpsid":null},"geometry":{"type":"Point","coordinates":[11.01459,47.80097]}},{"type":"Feature","properties":{"ele":null,"time":null,"magvar":null,"geoidheight":null,"name":"[DE-D-82488] Café Rest. Edelweis","cmt":null,"desc":"Ettal, Kaiser-Ludwig-Platz 3","src":null,"link1_href":null,"link1_text":null,"link1_type":null,"link2_href":null,"link2_text":null,"link2_type":null,"sym":null,"type":null,"fix":null,"sat":null,"hdop":null,"vdop":null,"pdop":null,"ageofdgpsdata":null,"dgpsid":null},"geometry":{"type":"Point","coordinates":[11.09451,47.56862]}},{"type":"Feature","properties":{"ele":null,"time":null,"magvar":null,"geoidheight":null,"name":"[DE-06567] Kyffhäuser [Steinthaleben - Kyffhäuser]","cmt":null,"desc":null,"src":null,"link1_href":null,"link1_text":null,"link1_type":null,"link2_href":null,"link2_text":null,"link2_type":null,"sym":null,"type":null,"fix":null,"sat":null,"hdop":null,"vdop":null,"pdop":null,"ageofdgpsdata":null,"dgpsid":null},"geometry":{"type":"Point","coordinates":[11.105,51.41278]}},{"type":"Feature","properties":{"ele":null,"time":null,"magvar":null,"geoidheight":null,"name":"[DE-D-85235] Gasthaus zur Sonne","cmt":null,"desc":"Odelzhausen, Marktstrasse 10","src":null,"link1_href":null,"link1_text":null,"link1_type":null,"link2_href":null,"link2_text":null,"link2_type":null,"sym":null,"type":null,"fix":null,"sat":null,"hdop":null,"vdop":null,"pdop":null,"ageofdgpsdata":null,"dgpsid":null},"geometry":{"type":"Point","coordinates":[11.19573,48.31114]}},