[
{"type":"Feature","properties":{"name":"[CH-4632] Töfftreff immer Donnerstag Abend  TRIMBACH [Trimbach]"},"geometry":{"type":"Point","coordinates":[7.8827,47.3674]}},
{"type":"Feature","properties":{"name":"[CH-8182] Rest Kaserne. 1er Freitag im Monat ab 19uhr [Hochfelden]"},"geometry":{"type":"Point","coordinates":[8.52363,47.51192]}},
{"type":"Feature","properties":{"name":"[DE-51688] Bevertalsperre, Imbissbuden [Wipperfürth - Klitzhaufe] - JPR04'2016"},"geometry":{"type":"Point","coordinates":[7.37415,51.14164]}},
{"type":"Feature","properties":{"name":"[DE-51709] Schloßhotel Gimborn - Marienheide, Schlossstraße 15 - JPR 04'2016"},"geometry":{"type":"Point","coordinates":[7.47601,51.06107]}},
{"type":"Feature","properties":{"name":"[DE-52396] Hausener Kaffeestübchen, Heimbach-Hausen, An der Kirche 3 - JPR 04'2016"},"geometry":{"type":"Point","coordinates":[6.49416,50.65219]}},
{"type":"Feature","properties":{"name":"[DE-53506] Cafe Ahrwind - Hauptstr.45 Ahrbrück [Ahrbrück - Brück] - JPR 04'2016"},"geometry":{"type":"Point","coordinates":[6.97366,50.48599]}},
{"type":"Feature","properties":{"name":"[DE-53506] Cafe Fahrtwind, Ahrbrück,  Eifel [Ahrbrück - Brück] - JPR 04'2016"},"geometry":{"type":"Point","coordinates":[6.96259,50.47394]}},
{"type":"Feature","properties":{"name":"[DE-53547] Malberg-Hütte - Hausen (Wied), Dorfstraße 9 - JPR 04'2016>02638 946731"},"geometry":{"type":"Point","coordinates":[7.38793,50.53233]}},
{"type":"Feature","properties":{"name":"[DE-54578] Nohner Mühle - Nohn, Nohner Mühle 2 - JPR 04'2016>+49 02696 - 1314"},"geometry":{"type":"Point","coordinates":[6.80805,50.27531]}},
{"type":"Feature","properties":{"name":"[DE-56745] Eifeler Seehütte - Rieden, Dr. Georg Klinkhammer Weg 1  - JPR 04'2015"},"geometry":{"type":"Point","coordinates":[7.16311,50.39049]}},
{"type":"Feature","properties":{"name":"[DE-57368] Hohe Bracht, Lennestadt, JPR 04'2015"},"geometry":{"type":"Point","coordinates":[8.04391,51.08429]}},
{"type":"Feature","properties":{"name":"[DE-57642] Alpenröder-Hütte - Alpenrod, Auf dem Gräbersberg - JPR 04'2015>02662 - 94 37 54"},"geometry":{"type":"Point","coordinates":[7.85368,50.62772]}},
{"type":"Feature","properties":{"name":"[DE-66773] Cafe Stormwind [Schwalbach - Waldhexe]"},"geometry":{"type":"Point","coordinates":[6.83497,49.31178]}},
{"type":"Feature","properties":{"name":"[DE-67705] Cafe Nicklis am Johanniskreuz 3 [Trippstadt]"},"geometry":{"type":"Point","coordinates":[7.82505,49.33784]}},
{"type":"Feature","properties":{"name":"[DE-67705] Johanniskreuz [TRIPPSTADT]"},"geometry":{"type":"Point","coordinates":[7.82626,49.33637]}},
{"type":"Feature","properties":{"name":"[DE-76774] Fähre"},"geometry":{"type":"Point","coordinates":[8.36615,49.11574]}},
{"type":"Feature","properties":{"name":"[DE-78120] Hexenlochmühle"},"geometry":{"type":"Point","coordinates":[8.14291,48.01163]}},
{"type":"Feature","properties":{"name":"[DE-78234] Café Rest. Hegaustern"},"geometry":{"type":"Point","coordinates":[8.7265,47.88225]}},
{"type":"Feature","properties":{"name":"[DE-78234] Hegaublick [Engen - Stetten]"},"geometry":{"type":"Point","coordinates":[8.72826,47.88354]}},
{"type":"Feature","properties":{"name":"[DE-79837] Café Drehzahl"},"geometry":{"type":"Point","coordinates":[8.18763,47.75582]}}]